$GPGGA,025513.20,3015.9412696,N,12007.1906282,E,4,37,0.4,11.9123,M,7.098,M,0.2,0004*7E
$GPGGA,025513.30,3015.9412696,N,12007.1906277,E,4,37,0.4,11.9138,M,7.098,M,0.3,0004*7E
$GPGGA,025513.40,3015.9412695,N,12007.1906272,E,4,37,0.4,11.9125,M,7.098,M,0.4,0004*74
$GPGGA,025513.50,3015.9412692,N,12007.1906276,E,4,37,0.4,11.9132,M,7.098,M,0.5,0004*71
$GPGGA,025513.60,3015.9412695,N,12007.1906278,E,4,37,0.4,11.9119,M,7.098,M,0.6,0004*71
$GPGGA,025513.70,3015.9412699,N,12007.1906278,E,4,37,0.4,11.9138,M,7.098,M,0.7,0004*7E
$GPGGA,025513.80,3015.9412692,N,12007.1906278,E,4,37,0.4,11.9126,M,7.098,M,0.8,0004*7A
$GPGGA,025513.90,3015.9412698,N,12007.1906278,E,4,37,0.4,11.9128,M,7.098,M,0.9,0004*7E
$GPGGA,025514.00,3015.9412697,N,12007.1906272,E,4,37,0.4,11.9157,M,7.098,M,1.0,0004*75
$GPGGA,025514.10,3015.9412700,N,12007.1906278,E,4,37,0.4,11.9137,M,7.098,M,0.1,0004*77
$GPGGA,025514.20,3015.9412700,N,12007.1906280,E,4,37,0.4,11.9136,M,7.098,M,0.2,0004*71
$GPGGA,025514.30,3015.9412696,N,12007.1906281,E,4,37,0.4,11.9138,M,7.098,M,0.3,0004*70
$GPGGA,025514.40,3015.9412694,N,12007.1906278,E,4,37,0.4,11.9145,M,7.098,M,0.4,0004*7E
$GPGGA,025514.50,3015.9412696,N,12007.1906279,E,4,37,0.4,11.9146,M,7.098,M,0.5,0004*7E
$GPGGA,025514.60,3015.9412693,N,12007.1906284,E,4,37,0.4,11.9150,M,7.098,M,0.6,0004*7E
$GPGGA,025514.70,3015.9412697,N,12007.1906278,E,4,37,0.4,11.9148,M,7.098,M,0.7,0004*70
$GPGGA,025514.80,3015.9412700,N,12007.1906294,E,4,37,0.4,11.9119,M,7.098,M,0.8,0004*79
$GPGGA,025514.90,3015.9412693,N,12007.1906283,E,4,37,0.4,11.9151,M,7.098,M,0.9,0004*78
$GPGGA,025515.00,3015.9412691,N,12007.1906279,E,4,37,0.4,11.9153,M,7.098,M,1.0,0004*7D
$GPGGA,025515.10,3015.9412692,N,12007.1906278,E,4,37,0.4,11.9176,M,7.098,M,0.1,0004*79
$GPGGA,025515.20,3015.9412700,N,12007.1906274,E,4,37,0.4,11.9175,M,7.098,M,0.2,0004*7C
$GPGGA,025515.30,3015.9412705,N,12007.1906278,E,4,37,0.4,11.9135,M,7.098,M,0.3,0004*71
$GPGGA,025515.40,3015.9412702,N,12007.1906272,E,4,37,0.4,11.9155,M,7.098,M,0.4,0004*7A
$GPGGA,025515.50,3015.9412698,N,12007.1906278,E,4,37,0.4,11.9149,M,7.098,M,0.5,0004*7F
$GPGGA,025515.60,3015.9412698,N,12007.1906271,E,4,37,0.4,11.9161,M,7.098,M,0.6,0004*7C
$GPGGA,025515.70,3015.9412699,N,12007.1906277,E,4,37,0.4,11.9165,M,7.098,M,0.7,0004*7F
$GPGGA,025515.80,3015.9412700,N,12007.1906273,E,4,37,0.4,11.9177,M,7.098,M,0.8,0004*79
$GPGGA,025515.90,3015.9412696,N,12007.1906279,E,4,37,0.4,11.9180,M,7.098,M,0.9,0004*75
$GPGGA,025516.00,3015.9412693,N,12007.1906276,E,4,37,0.4,11.9172,M,7.098,M,1.0,0004*70
$GPGGA,025516.10,3015.9412696,N,12007.1906275,E,4,37,0.4,11.9163,M,7.098,M,0.1,0004*77
$GPGGA,025516.20,3015.9412692,N,12007.1906285,E,4,37,0.4,11.9123,M,7.098,M,0.2,0004*78
$GPGGA,025516.30,3015.9412686,N,12007.1906275,E,4,37,0.4,11.9172,M,7.098,M,0.3,0004*76
$GPGGA,025516.40,3015.9412693,N,12007.1906283,E,4,37,0.4,11.9155,M,7.098,M,0.4,0004*7E
$GPGGA,025516.50,3015.9412688,N,12007.1906281,E,4,37,0.4,11.9157,M,7.098,M,0.5,0004*74
$GPGGA,025516.60,3015.9412691,N,12007.1906286,E,4,37,0.4,11.9135,M,7.098,M,0.6,0004*7F
$GPGGA,025516.70,3015.9412692,N,12007.1906278,E,4,37,0.4,11.9176,M,7.098,M,0.7,0004*7A
$GPGGA,025516.80,3015.9412692,N,12007.1906276,E,4,37,0.4,11.9152,M,7.098,M,0.8,0004*72
$GPGGA,025516.90,3015.9412691,N,12007.1906280,E,4,37,0.4,11.9146,M,7.098,M,0.9,0004*7D
$GPGGA,025517.00,3015.9412689,N,12007.1906278,E,4,37,0.4,11.9153,M,7.098,M,1.0,0004*77
$GPGGA,025517.10,3015.9412692,N,12007.1906277,E,4,37,0.4,11.9159,M,7.098,M,0.1,0004*79
$GPGGA,025517.20,3015.9412691,N,12007.1906277,E,4,37,0.4,11.9183,M,7.098,M,0.2,0004*7D
$GPGGA,025517.30,3015.9412694,N,12007.1906274,E,4,37,0.4,11.9188,M,7.098,M,0.3,0004*70
$GPGGA,025517.40,3015.9412694,N,12007.1906276,E,4,37,0.4,11.9164,M,7.098,M,0.4,0004*70
$GPGGA,025517.50,3015.9412696,N,12007.1906275,E,4,37,0.4,11.9149,M,7.098,M,0.5,0004*7E
$GPGGA,025517.60,3015.9412694,N,12007.1906276,E,4,37,0.4,11.9164,M,7.098,M,0.6,0004*70
$GPGGA,025517.70,3015.9412694,N,12007.1906275,E,4,37,0.4,11.9171,M,7.098,M,0.7,0004*77
$GPGGA,025517.80,3015.9412696,N,12007.1906276,E,4,37,0.4,11.9155,M,7.098,M,0.8,0004*70
$GPGGA,025517.90,3015.9412692,N,12007.1906281,E,4,37,0.4,11.9150,M,7.098,M,0.9,0004*79
$GPGGA,025518.00,3015.9412686,N,12007.1906279,E,4,37,0.4,11.9164,M,7.098,M,1.0,0004*72
$GPGGA,025518.10,3015.9412693,N,12007.1906276,E,4,37,0.4,11.9169,M,7.098,M,0.1,0004*75
$GPGGA,025518.20,3015.9412696,N,12007.1906273,E,4,37,0.4,11.9155,M,7.098,M,0.2,0004*7A
$GPGGA,025518.30,3015.9412690,N,12007.1906275,E,4,37,0.4,11.9162,M,7.098,M,0.3,0004*7E
$GPGGA,025518.40,3015.9412690,N,12007.1906271,E,4,37,0.4,11.9161,M,7.098,M,0.4,0004*79
$GPGGA,025518.50,3015.9412693,N,12007.1906275,E,4,37,0.4,11.9156,M,7.098,M,0.5,0004*7A
$GPGGA,025518.60,3015.9412693,N,12007.1906274,E,4,37,0.4,11.9167,M,7.098,M,0.6,0004*79
$GPGGA,025518.70,3015.9412696,N,12007.1906278,E,4,37,0.4,11.9148,M,7.098,M,0.7,0004*7D
$GPGGA,025518.80,3015.9412697,N,12007.1906276,E,4,37,0.4,11.9178,M,7.098,M,0.8,0004*71
$GPGGA,025518.90,3015.9412690,N,12007.1906273,E,4,37,0.4,11.9162,M,7.098,M,0.9,0004*78
$GPGGA,025519.00,3015.9412693,N,12007.1906277,E,4,37,0.4,11.9180,M,7.098,M,1.0,0004*73
$GPGGA,025519.10,3015.9412693,N,12007.1906271,E,4,37,0.4,11.9183,M,7.098,M,0.1,0004*77
$GPGGA,025519.20,3015.9412691,N,12007.1906277,E,4,37,0.4,11.9214,M,7.098,M,0.2,0004*7E
$GPGGA,025519.30,3015.9412694,N,12007.1906272,E,4,37,0.4,11.9192,M,7.098,M,0.3,0004*73
$GPGGA,025519.40,3015.9412689,N,12007.1906271,E,4,37,0.4,11.9213,M,7.098,M,0.4,0004*76
$GPGGA,025519.50,3015.9412683,N,12007.1906266,E,4,37,0.4,11.9233,M,7.098,M,0.5,0004*78
$GPGGA,025519.60,3015.9412690,N,12007.1906281,E,4,37,0.5,11.9199,M,7.098,M,0.6,0004*71
$GPGGA,025519.70,3015.9412698,N,12007.1906282,E,4,36,0.5,11.9168,M,7.098,M,0.7,0004*75
$GPGGA,025519.80,3015.9412692,N,12007.1906271,E,4,36,0.5,11.9203,M,7.098,M,0.8,0004*7D
$GPGGA,025519.90,3015.9412691,N,12007.1906262,E,4,36,0.5,11.9208,M,7.098,M,0.9,0004*77
$GPGGA,025520.00,3015.9412684,N,12007.1906253,E,4,36,0.5,11.9291,M,7.098,M,1.0,0004*7A
$GPGGA,025520.10,3015.9412687,N,12007.1906260,E,4,36,0.5,11.9286,M,7.098,M,0.1,0004*7E
$GPGGA,025520.20,3015.9412672,N,12007.1906258,E,4,37,0.4,11.9272,M,7.098,M,0.2,0004*74
$GPGGA,025520.30,3015.9412678,N,12007.1906261,E,4,37,0.5,11.9263,M,7.098,M,0.3,0004*75
$GPGGA,025520.40,3015.9412672,N,12007.1906262,E,4,36,0.5,11.9301,M,7.098,M,0.4,0004*78
$GPGGA,025520.50,3015.9412679,N,12007.1906259,E,4,36,0.5,11.9272,M,7.098,M,0.5,0004*7E
$GPGGA,025520.60,3015.9412675,N,12007.1906259,E,4,36,0.5,11.9301,M,7.098,M,0.6,0004*77
$GPGGA,025520.70,3015.9412675,N,12007.1906261,E,4,36,0.5,11.9277,M,7.098,M,0.7,0004*7C
$GPGGA,025520.80,3015.9412671,N,12007.1906268,E,4,36,0.5,11.9261,M,7.098,M,0.8,0004*76
$GPGGA,025520.90,3015.9412667,N,12007.1906274,E,4,36,0.5,11.9232,M,7.098,M,0.9,0004*7A
$GPGGA,025521.00,3015.9412681,N,12007.1906268,E,4,36,0.5,11.9224,M,7.098,M,1.0,0004*78
$GPGGA,025521.10,3015.9412663,N,12007.1906292,E,4,36,0.5,11.9192,M,7.098,M,0.1,0004*7E
$GPGGA,025521.20,3015.9412700,N,12007.1906276,E,4,36,0.5,11.9248,M,7.098,M,0.2,0004*74
$GPGGA,025521.30,3015.9412712,N,12007.1906244,E,4,36,0.5,11.9285,M,7.098,M,0.3,0004*77
$GPGGA,025521.40,3015.9412684,N,12007.1906280,E,4,35,0.4,11.9299,M,7.098,M,0.4,0004*7E
$GPGGA,025521.50,3015.9412676,N,12007.1906275,E,4,35,0.4,11.9287,M,7.098,M,0.5,0004*76
$GPGGA,025521.60,3015.9412681,N,12007.1906262,E,4,36,0.4,11.9264,M,7.098,M,0.6,0004*76
$GPGGA,025521.70,3015.9412696,N,12007.1906273,E,4,36,0.4,11.9264,M,7.098,M,0.7,0004*70
$GPGGA,025521.80,3015.9412694,N,12007.1906279,E,4,36,0.4,11.9237,M,7.098,M,0.8,0004*7E
$GPGGA,025521.90,3015.9412694,N,12007.1906271,E,4,36,0.4,11.9249,M,7.098,M,0.9,0004*7F
$GPGGA,025522.00,3015.9412701,N,12007.1906266,E,4,35,0.5,11.9263,M,7.098,M,1.0,0004*7C
$GPGGA,025522.10,3015.9412705,N,12007.1906261,E,4,35,0.4,11.9292,M,7.098,M,0.1,0004*71
$GPGGA,025522.20,3015.9412698,N,12007.1906265,E,4,35,0.5,11.9275,M,7.098,M,0.2,0004*78
$GPGGA,025522.30,3015.9412694,N,12007.1906264,E,4,35,0.5,11.9312,M,7.098,M,0.3,0004*75
$GPGGA,025522.40,3015.9412703,N,12007.1906269,E,4,35,0.5,11.9277,M,7.098,M,0.4,0004*75
$GPGGA,025522.50,3015.9412706,N,12007.1906256,E,4,35,0.5,11.9301,M,7.098,M,0.5,0004*7C
$GPGGA,025522.60,3015.9412706,N,12007.1906263,E,4,35,0.5,11.9272,M,7.098,M,0.6,0004*7F
$GPGGA,025522.70,3015.9412701,N,12007.1906264,E,4,35,0.5,11.9271,M,7.098,M,0.7,0004*7C
$GPGGA,025522.80,3015.9412677,N,12007.1906268,E,4,36,0.4,11.9259,M,7.098,M,0.8,0004*78
$GPGGA,025522.90,3015.9412715,N,12007.1906259,E,4,36,0.5,11.9265,M,7.098,M,0.9,0004*71
$GPGGA,025523.00,3015.9412719,N,12007.1906238,E,4,35,0.4,11.9299,M,7.098,M,1.0,0004*7B
$GPGGA,025523.10,3015.9412721,N,12007.1906240,E,4,36,0.4,11.9315,M,7.098,M,0.1,0004*78
$GPGGA,025523.20,3015.9412710,N,12007.1906264,E,4,36,0.4,11.9325,M,7.098,M,0.2,0004*7F
$GPGGA,025523.30,3015.9412699,N,12007.1906275,E,4,36,0.4,11.9384,M,7.098,M,0.3,0004*74
$GPGGA,025523.40,3015.9412669,N,12007.1906352,E,4,36,0.4,11.9428,M,7.098,M,0.4,0004*7E
$GPGGA,025523.50,3015.9412642,N,12007.1906483,E,4,36,0.4,11.9480,M,7.098,M,0.5,0004*7E
$GPGGA,025523.60,3015.9412611,N,12007.1906638,E,4,36,0.4,11.9552,M,7.098,M,0.6,0004*74
$GPGGA,025523.70,3015.9412575,N,12007.1906839,E,4,36,0.4,11.9632,M,7.098,M,0.7,0004*7F
$GPGGA,025523.80,3015.9412531,N,12007.1907104,E,4,35,0.5,11.9694,M,7.098,M,0.8,0004*77
$GPGGA,025523.90,3015.9412451,N,12007.1907337,E,4,36,0.4,11.9829,M,7.098,M,0.9,0004*78
$GPGGA,025524.00,3015.9412328,N,12007.1907599,E,4,36,0.5,11.9721,M,7.098,M,1.0,0004*73
$GPGGA,025524.10,3015.9412259,N,12007.1907827,E,4,35,0.5,11.9841,M,7.098,M,0.1,0004*77
$GPGGA,025524.20,3015.9412199,N,12007.1908051,E,4,34,0.5,11.9785,M,7.098,M,0.2,0004*78
$GPGGA,025524.30,3015.9412159,N,12007.1908271,E,4,35,0.5,11.9711,M,7.098,M,0.3,0004*78
$GPGGA,025524.40,3015.9412140,N,12007.1908475,E,4,35,0.5,11.9729,M,7.098,M,0.4,0004*79
$GPGGA,025524.50,3015.9412104,N,12007.1908631,E,4,34,0.5,11.9626,M,7.098,M,0.5,0004*74
$GPGGA,025524.60,3015.9412040,N,12007.1908709,E,4,34,0.5,11.9550,M,7.098,M,0.6,0004*7D
$GPGGA,025524.70,3015.9412022,N,12007.1908819,E,4,34,0.5,11.9515,M,7.098,M,0.7,0004*76
$GPGGA,025524.80,3015.9412013,N,12007.1908891,E,4,34,0.5,11.9458,M,7.098,M,0.8,0004*7C
$GPGGA,025524.90,3015.9412027,N,12007.1908950,E,4,34,0.5,11.9413,M,7.098,M,0.9,0004*78
$GPGGA,025525.00,3015.9412032,N,12007.1908984,E,4,34,0.5,11.9360,M,7.098,M,1.0,0004*76
$GPGGA,025525.10,3015.9411970,N,12007.1908933,E,4,34,0.5,11.9448,M,7.098,M,0.1,0004*7A
$GPGGA,025525.20,3015.9411933,N,12007.1908948,E,4,34,0.5,11.9392,M,7.098,M,0.2,0004*71
$GPGGA,025525.30,3015.9411906,N,12007.1909032,E,4,34,0.6,11.9478,M,7.098,M,0.3,0004*72
$GPGGA,025525.40,3015.9411863,N,12007.1909044,E,4,32,0.6,11.9494,M,7.098,M,0.4,0004*75
$GPGGA,025525.50,3015.9411837,N,12007.1909020,E,4,31,0.6,11.9504,M,7.098,M,0.5,0004*7D
$GPGGA,025525.60,3015.9411834,N,12007.1909048,E,4,31,0.7,11.9487,M,7.098,M,0.6,0004*7B
$GPGGA,025525.70,3015.9411799,N,12007.1909059,E,4,31,0.7,11.9442,M,7.098,M,0.7,0004*7A
$GPGGA,025525.80,3015.9411810,N,12007.1909068,E,4,31,0.7,11.9466,M,7.098,M,0.8,0004*70
$GPGGA,025525.90,3015.9411805,N,12007.1909052,E,4,31,0.7,11.9447,M,7.098,M,0.9,0004*7E
$GPGGA,025526.00,3015.9411783,N,12007.1909053,E,4,31,0.7,11.9422,M,7.098,M,1.0,0004*7F
$GPGGA,025526.10,3015.9411790,N,12007.1909070,E,4,31,0.7,11.9368,M,7.098,M,0.1,0004*74
$GPGGA,025526.20,3015.9411793,N,12007.1909089,E,4,31,0.7,11.9336,M,7.098,M,0.2,0004*7A
$GPGGA,025526.30,3015.9411816,N,12007.1909113,E,4,31,0.7,11.9213,M,7.098,M,0.3,0004*7C
$GPGGA,025526.40,3015.9411832,N,12007.1909125,E,4,31,0.7,11.9201,M,7.098,M,0.4,0004*7C
$GPGGA,025526.50,3015.9411844,N,12007.1909139,E,4,32,0.6,11.9161,M,7.098,M,0.5,0004*77
$GPGGA,025526.60,3015.9411837,N,12007.1909131,E,4,32,0.6,11.9171,M,7.098,M,0.6,0004*7A
$GPGGA,025526.70,3015.9411843,N,12007.1909147,E,4,32,0.6,11.9103,M,7.098,M,0.7,0004*7D
$GPGGA,025526.80,3015.9411814,N,12007.1909117,E,4,32,0.6,11.9146,M,7.098,M,0.8,0004*7B
$GPGGA,025526.90,3015.9411799,N,12007.1909088,E,4,32,0.6,11.9256,M,7.098,M,0.9,0004*74
$GPGGA,025527.00,3015.9411850,N,12007.1909116,E,4,32,0.6,11.9193,M,7.098,M,1.0,0004*72
$GPGGA,025527.10,3015.9411849,N,12007.1909125,E,4,32,0.6,11.9145,M,7.098,M,0.1,0004*70
$GPGGA,025527.20,3015.9411859,N,12007.1909135,E,4,32,0.6,11.9074,M,7.098,M,0.2,0004*73
$GPGGA,025527.30,3015.9411849,N,12007.1909138,E,4,33,0.6,11.9158,M,7.098,M,0.3,0004*71
$GPGGA,025527.40,3015.9411849,N,12007.1909131,E,4,33,0.6,11.9118,M,7.098,M,0.4,0004*7C
$GPGGA,025527.50,3015.9411840,N,12007.1909127,E,4,33,0.6,11.9177,M,7.098,M,0.5,0004*7B
$GPGGA,025527.60,3015.9411830,N,12007.1909125,E,4,33,0.6,11.9208,M,7.098,M,0.6,0004*75
$GPGGA,025527.70,3015.9411833,N,12007.1909120,E,4,33,0.6,11.9214,M,7.098,M,0.7,0004*7E
$GPGGA,025527.80,3015.9411833,N,12007.1909121,E,4,33,0.6,11.9194,M,7.098,M,0.8,0004*74
$GPGGA,025527.90,3015.9411831,N,12007.1909121,E,4,34,0.5,11.9189,M,7.098,M,0.9,0004*7E
$GPGGA,025528.00,3015.9411826,N,12007.1909122,E,4,34,0.5,11.9201,M,7.098,M,1.0,0004*76
$GPGGA,025528.10,3015.9411836,N,12007.1909127,E,4,35,0.5,11.9168,M,7.098,M,0.1,0004*7E
$GPGGA,025528.20,3015.9411835,N,12007.1909133,E,4,35,0.5,11.9124,M,7.098,M,0.2,0004*70
$GPGGA,025528.30,3015.9411838,N,12007.1909133,E,4,35,0.5,11.9156,M,7.098,M,0.3,0004*78
$GPGGA,025528.40,3015.9411840,N,12007.1909129,E,4,35,0.5,11.9133,M,7.098,M,0.4,0004*7F
$GPGGA,025528.50,3015.9411836,N,12007.1909140,E,4,35,0.5,11.9130,M,7.098,M,0.5,0004*72
$GPGGA,025528.60,3015.9411833,N,12007.1909137,E,4,35,0.5,11.9154,M,7.098,M,0.6,0004*75
$GPGGA,025528.70,3015.9411832,N,12007.1909138,E,4,35,0.5,11.9137,M,7.098,M,0.7,0004*7E
$GPGGA,025528.80,3015.9411841,N,12007.1909138,E,4,35,0.5,11.9158,M,7.098,M,0.8,0004*73
$GPGGA,025528.90,3015.9411832,N,12007.1909140,E,4,35,0.5,11.9177,M,7.098,M,0.9,0004*75
$GPGGA,025529.00,3015.9411829,N,12007.1909140,E,4,35,0.5,11.9156,M,7.098,M,1.0,0004*7C
$GPGGA,025529.10,3015.9411831,N,12007.1909134,E,4,35,0.5,11.9138,M,7.098,M,0.1,0004*7F
$GPGGA,025529.20,3015.9411828,N,12007.1909124,E,4,35,0.5,11.9263,M,7.098,M,0.2,0004*7B
$GPGGA,025529.30,3015.9411835,N,12007.1909125,E,4,35,0.5,11.9289,M,7.098,M,0.3,0004*72
$GPGGA,025529.40,3015.9411836,N,12007.1909128,E,4,35,0.5,11.9224,M,7.098,M,0.4,0004*7B
$GPGGA,025529.50,3015.9411849,N,12007.1909135,E,4,35,0.5,11.9177,M,7.098,M,0.5,0004*7A
$GPGGA,025529.60,3015.9411852,N,12007.1909140,E,4,35,0.5,11.9145,M,7.098,M,0.6,0004*73
$GPGGA,025529.70,3015.9411858,N,12007.1909158,E,4,35,0.5,11.9055,M,7.098,M,0.7,0004*70
$GPGGA,025529.80,3015.9411859,N,12007.1909160,E,4,35,0.5,11.9031,M,7.098,M,0.8,0004*78
$GPGGA,025529.90,3015.9411864,N,12007.1909162,E,4,35,0.5,11.9026,M,7.098,M,0.9,0004*72
$GPGGA,025530.00,3015.9411863,N,12007.1909160,E,4,35,0.5,11.9032,M,7.098,M,1.0,0004*7B
$GPGGA,025530.10,3015.9411860,N,12007.1909173,E,4,35,0.5,11.9042,M,7.098,M,0.1,0004*7C
$GPGGA,025530.20,3015.9411867,N,12007.1909169,E,4,36,0.4,11.9058,M,7.098,M,0.2,0004*79
$GPGGA,025530.30,3015.9411858,N,12007.1909170,E,4,36,0.4,11.9077,M,7.098,M,0.3,0004*70
$GPGGA,025530.40,3015.9411863,N,12007.1909166,E,4,36,0.4,11.9058,M,7.098,M,0.4,0004*72
$GPGGA,025530.50,3015.9411864,N,12007.1909165,E,4,36,0.4,11.9082,M,7.098,M,0.5,0004*71
$GPGGA,025530.60,3015.9411860,N,12007.1909167,E,4,36,0.4,11.9080,M,7.098,M,0.6,0004*75
$GPGGA,025530.70,3015.9411856,N,12007.1909164,E,4,36,0.5,11.9074,M,7.098,M,0.7,0004*79
$GPGGA,025530.80,3015.9411859,N,12007.1909171,E,4,36,0.4,11.9056,M,7.098,M,0.8,0004*73
$GPGGA,025530.90,3015.9411857,N,12007.1909170,E,4,36,0.4,11.9074,M,7.098,M,0.9,0004*7C
$GPGGA,025531.00,3015.9411857,N,12007.1909170,E,4,36,0.4,11.9081,M,7.098,M,1.0,0004*76
$GPGGA,025531.10,3015.9411859,N,12007.1909166,E,4,36,0.4,11.9088,M,7.098,M,0.1,0004*77
$GPGGA,025531.20,3015.9411857,N,12007.1909172,E,4,36,0.4,11.9115,M,7.098,M,0.2,0004*79
$GPGGA,025531.30,3015.9411860,N,12007.1909169,E,4,36,0.4,11.9060,M,7.098,M,0.3,0004*74
$GPGGA,025531.40,3015.9411861,N,12007.1909175,E,4,36,0.4,11.9062,M,7.098,M,0.4,0004*7A
$GPGGA,025531.50,3015.9411861,N,12007.1909171,E,4,36,0.5,11.9071,M,7.098,M,0.5,0004*7D
$GPGGA,025531.60,3015.9411857,N,12007.1909170,E,4,35,0.4,11.9078,M,7.098,M,0.6,0004*72
$GPGGA,025531.70,3015.9411851,N,12007.1909175,E,4,35,0.4,11.9066,M,7.098,M,0.7,0004*7E
$GPGGA,025531.80,3015.9411857,N,12007.1909167,E,4,36,0.4,11.9092,M,7.098,M,0.8,0004*73
$GPGGA,025531.90,3015.9411858,N,12007.1909171,E,4,36,0.5,11.9069,M,7.098,M,0.9,0004*7E
$GPGGA,025532.00,3015.9411855,N,12007.1909166,E,4,35,0.4,11.9087,M,7.098,M,1.0,0004*75
$GPGGA,025532.10,3015.9411855,N,12007.1909170,E,4,36,0.4,11.9092,M,7.098,M,0.1,0004*74
$GPGGA,025532.20,3015.9411853,N,12007.1909158,E,4,36,0.4,11.9130,M,7.098,M,0.2,0004*71
$GPGGA,025532.30,3015.9411858,N,12007.1909164,E,4,36,0.4,11.9107,M,7.098,M,0.3,0004*71
$GPGGA,025532.40,3015.9411853,N,12007.1909163,E,4,36,0.4,11.9119,M,7.098,M,0.4,0004*72
$GPGGA,025532.50,3015.9411856,N,12007.1909169,E,4,36,0.4,11.9113,M,7.098,M,0.5,0004*77
$GPGGA,025532.60,3015.9411843,N,12007.1909165,E,4,36,0.4,11.9111,M,7.098,M,0.6,0004*7D
$GPGGA,025532.70,3015.9411852,N,12007.1909165,E,4,36,0.4,11.9084,M,7.098,M,0.7,0004*70
$GPGGA,025532.80,3015.9411849,N,12007.1909174,E,4,36,0.5,11.9115,M,7.098,M,0.8,0004*72
$GPGGA,025532.90,3015.9411845,N,12007.1909167,E,4,35,0.4,11.9135,M,7.098,M,0.9,0004*7C
$GPGGA,025533.00,3015.9411842,N,12007.1909170,E,4,35,0.5,11.9083,M,7.098,M,1.0,0004*70
$GPGGA,025533.10,3015.9411851,N,12007.1909166,E,4,35,0.5,11.9107,M,7.098,M,0.1,0004*79
$GPGGA,025533.20,3015.9411861,N,12007.1909163,E,4,37,0.4,11.9065,M,7.098,M,0.2,0004*79
$GPGGA,025533.30,3015.9411858,N,12007.1909164,E,4,37,0.5,11.9052,M,7.098,M,0.3,0004*71
$GPGGA,025533.40,3015.9411861,N,12007.1909165,E,4,37,0.4,11.9030,M,7.098,M,0.4,0004*7F
$GPGGA,025533.50,3015.9411854,N,12007.1909167,E,4,37,0.5,11.9070,M,7.098,M,0.5,0004*7E
$GPGGA,025533.60,3015.9411853,N,12007.1909164,E,4,36,0.5,11.9056,M,7.098,M,0.6,0004*7F
$GPGGA,025533.70,3015.9411853,N,12007.1909168,E,4,36,0.4,11.9057,M,7.098,M,0.7,0004*73
$GPGGA,025533.80,3015.9411853,N,12007.1909162,E,4,37,0.4,11.9080,M,7.098,M,0.8,0004*72
$GPGGA,025533.90,3015.9411854,N,12007.1909166,E,4,37,0.4,11.9076,M,7.098,M,0.9,0004*78
$GPGGA,025534.00,3015.9411854,N,12007.1909169,E,4,37,0.4,11.9067,M,7.098,M,1.0,0004*71
$GPGGA,025534.10,3015.9411851,N,12007.1909165,E,4,37,0.5,11.9086,M,7.098,M,0.1,0004*77
$GPGGA,025534.20,3015.9411850,N,12007.1909167,E,4,36,0.4,11.9073,M,7.098,M,0.2,0004*7E
$GPGGA,025534.30,3015.9411856,N,12007.1909166,E,4,37,0.4,11.9062,M,7.098,M,0.3,0004*78
$GPGGA,025534.40,3015.9411853,N,12007.1909171,E,4,37,0.5,11.9041,M,7.098,M,0.4,0004*7B
$GPGGA,025534.50,3015.9411850,N,12007.1909165,E,4,36,0.4,11.9075,M,7.098,M,0.5,0004*7A
$GPGGA,025534.60,3015.9411854,N,12007.1909171,E,4,36,0.4,11.9082,M,7.098,M,0.6,0004*73
$GPGGA,025534.70,3015.9411848,N,12007.1909166,E,4,37,0.4,11.9064,M,7.098,M,0.7,0004*71
$GPGGA,025534.80,3015.9411853,N,12007.1909175,E,4,37,0.4,11.9045,M,7.098,M,0.8,0004*7A
$GPGGA,025534.90,3015.9411852,N,12007.1909174,E,4,36,0.5,11.9058,M,7.098,M,0.9,0004*76
$GPGGA,025535.00,3015.9411847,N,12007.1909175,E,4,36,0.4,11.9071,M,7.098,M,1.0,0004*79
$GPGGA,025535.10,3015.9411853,N,12007.1909162,E,4,36,0.5,11.9094,M,7.098,M,0.1,0004*71
$GPGGA,025535.20,3015.9411849,N,12007.1909166,E,4,36,0.4,11.9086,M,7.098,M,0.2,0004*7C
$GPGGA,025535.30,3015.9411850,N,12007.1909164,E,4,36,0.4,11.9087,M,7.098,M,0.3,0004*77
$GPGGA,025535.40,3015.9411845,N,12007.1909159,E,4,36,0.4,11.9100,M,7.098,M,0.4,0004*73
$GPGGA,025535.50,3015.9411846,N,12007.1909164,E,4,36,0.4,11.9079,M,7.098,M,0.5,0004*71
$GPGGA,025535.60,3015.9411848,N,12007.1909168,E,4,36,0.4,11.9100,M,7.098,M,0.6,0004*7C
$GPGGA,025535.70,3015.9411844,N,12007.1909161,E,4,37,0.4,11.9129,M,7.098,M,0.7,0004*73
$GPGGA,025535.80,3015.9411847,N,12007.1909164,E,4,37,0.5,11.9108,M,7.098,M,0.8,0004*77
$GPGGA,025535.90,3015.9411848,N,12007.1909165,E,4,36,0.4,11.9105,M,7.098,M,0.9,0004*74
$GPGGA,025536.00,3015.9411846,N,12007.1909169,E,4,37,0.4,11.9102,M,7.098,M,1.0,0004*72
$GPGGA,025536.10,3015.9411846,N,12007.1909169,E,4,37,0.4,11.9121,M,7.098,M,0.1,0004*72
$GPGGA,025536.20,3015.9411845,N,12007.1909158,E,4,37,0.4,11.9138,M,7.098,M,0.2,0004*7B
$GPGGA,025536.30,3015.9411845,N,12007.1909161,E,4,37,0.4,11.9152,M,7.098,M,0.3,0004*7D
$GPGGA,025536.40,3015.9411844,N,12007.1909162,E,4,37,0.4,11.9131,M,7.098,M,0.4,0004*7A
$GPGGA,025536.50,3015.9411843,N,12007.1909167,E,4,37,0.4,11.9146,M,7.098,M,0.5,0004*78
$GPGGA,025536.60,3015.9411841,N,12007.1909160,E,4,36,0.4,11.9148,M,7.098,M,0.6,0004*72
$GPGGA,025536.70,3015.9411841,N,12007.1909161,E,4,36,0.4,11.9146,M,7.098,M,0.7,0004*7D
$GPGGA,025536.80,3015.9411843,N,12007.1909166,E,4,36,0.4,11.9131,M,7.098,M,0.8,0004*78
$GPGGA,025536.90,3015.9411841,N,12007.1909161,E,4,37,0.4,11.9154,M,7.098,M,0.9,0004*7F
$GPGGA,025537.00,3015.9411839,N,12007.1909164,E,4,37,0.4,11.9163,M,7.098,M,1.0,0004*71
$GPGGA,025537.10,3015.9411846,N,12007.1909160,E,4,37,0.4,11.9158,M,7.098,M,0.1,0004*74
$GPGGA,025537.20,3015.9411848,N,12007.1909165,E,4,37,0.4,11.9159,M,7.098,M,0.2,0004*7E
$GPGGA,025537.30,3015.9411845,N,12007.1909166,E,4,37,0.4,11.9145,M,7.098,M,0.3,0004*7D
$GPGGA,025537.40,3015.9411848,N,12007.1909160,E,4,37,0.5,11.9151,M,7.098,M,0.4,0004*72
$GPGGA,025537.50,3015.9411848,N,12007.1909169,E,4,37,0.4,11.9140,M,7.098,M,0.5,0004*7A
$GPGGA,025537.60,3015.9411842,N,12007.1909164,E,4,37,0.4,11.9157,M,7.098,M,0.6,0004*7B
$GPGGA,025537.70,3015.9411848,N,12007.1909163,E,4,37,0.4,11.9137,M,7.098,M,0.7,0004*70
$GPGGA,025537.80,3015.9411839,N,12007.1909164,E,4,37,0.4,11.9158,M,7.098,M,0.8,0004*78
$GPGGA,025537.90,3015.9411838,N,12007.1909167,E,4,36,0.5,11.9141,M,7.098,M,0.9,0004*72
$GPGGA,025538.00,3015.9411840,N,12007.1909164,E,4,36,0.5,11.9151,M,7.098,M,1.0,0004*71
$GPGGA,025538.10,3015.9411839,N,12007.1909160,E,4,37,0.4,11.9141,M,7.098,M,0.1,0004*7B
$GPGGA,025538.20,3015.9411850,N,12007.1909170,E,4,37,0.4,11.9114,M,7.098,M,0.2,0004*75
$GPGGA,025538.30,3015.9411850,N,12007.1909157,E,4,36,0.4,11.9141,M,7.098,M,0.3,0004*71
$GPGGA,025538.40,3015.9411840,N,12007.1909165,E,4,36,0.4,11.9130,M,7.098,M,0.4,0004*77
$GPGGA,025538.50,3015.9411850,N,12007.1909170,E,4,36,0.4,11.9094,M,7.098,M,0.5,0004*7D
$GPGGA,025538.60,3015.9411847,N,12007.1909159,E,4,36,0.4,11.9139,M,7.098,M,0.6,0004*76
$GPGGA,025538.70,3015.9411847,N,12007.1909161,E,4,36,0.4,11.9131,M,7.098,M,0.7,0004*75
$GPGGA,025538.80,3015.9411844,N,12007.1909162,E,4,37,0.4,11.9145,M,7.098,M,0.8,0004*77
$GPGGA,025538.90,3015.9411845,N,12007.1909162,E,4,37,0.4,11.9135,M,7.098,M,0.9,0004*71
$GPGGA,025539.00,3015.9411847,N,12007.1909159,E,4,37,0.4,11.9147,M,7.098,M,1.0,0004*7E
$GPGGA,025539.10,3015.9411845,N,12007.1909163,E,4,37,0.4,11.9174,M,7.098,M,0.1,0004*74
$GPGGA,025539.20,3015.9411845,N,12007.1909168,E,4,37,0.4,11.9169,M,7.098,M,0.2,0004*73
$GPGGA,025539.30,3015.9411846,N,12007.1909166,E,4,37,0.4,11.9137,M,7.098,M,0.3,0004*75
$GPGGA,025539.40,3015.9411850,N,12007.1909167,E,4,37,0.4,11.9138,M,7.098,M,0.4,0004*7C
$GPGGA,025539.50,3015.9411848,N,12007.1909167,E,4,37,0.4,11.9136,M,7.098,M,0.5,0004*7B
$GPGGA,025539.60,3015.9411846,N,12007.1909166,E,4,37,0.4,11.9116,M,7.098,M,0.6,0004*76
$GPGGA,025539.70,3015.9411846,N,12007.1909170,E,4,37,0.4,11.9143,M,7.098,M,0.7,0004*71
$GPGGA,025539.80,3015.9411845,N,12007.1909175,E,4,37,0.4,11.9100,M,7.098,M,0.8,0004*70
$GPGGA,025539.90,3015.9411851,N,12007.1909170,E,4,37,0.4,11.9091,M,7.098,M,0.9,0004*79
$GPGGA,025540.00,3015.9411847,N,12007.1909172,E,4,37,0.4,11.9105,M,7.098,M,1.0,0004*7F
$GPGGA,025540.10,3015.9411846,N,12007.1909171,E,4,37,0.4,11.9120,M,7.098,M,0.1,0004*7B
$GPGGA,025540.20,3015.9411846,N,12007.1909173,E,4,37,0.4,11.9141,M,7.098,M,0.2,0004*7E
$GPGGA,025540.30,3015.9411846,N,12007.1909170,E,4,37,0.4,11.9140,M,7.098,M,0.3,0004*7C
$GPGGA,025540.40,3015.9411851,N,12007.1909169,E,4,37,0.4,11.9140,M,7.098,M,0.4,0004*72
$GPGGA,025540.50,3015.9411843,N,12007.1909170,E,4,37,0.4,11.9170,M,7.098,M,0.5,0004*7A
$GPGGA,025540.60,3015.9411845,N,12007.1909173,E,4,37,0.4,11.9135,M,7.098,M,0.6,0004*7E
$GPGGA,025540.70,3015.9411844,N,12007.1909173,E,4,37,0.4,11.9138,M,7.098,M,0.7,0004*72
$GPGGA,025540.80,3015.9411849,N,12007.1909175,E,4,37,0.4,11.9129,M,7.098,M,0.8,0004*79
$GPGGA,025540.90,3015.9411848,N,12007.1909169,E,4,37,0.4,11.9130,M,7.098,M,0.9,0004*7D
$GPGGA,025541.00,3015.9411841,N,12007.1909171,E,4,37,0.4,11.9165,M,7.098,M,1.0,0004*7D
$GPGGA,025541.10,3015.9411854,N,12007.1909173,E,4,37,0.4,11.9114,M,7.098,M,0.1,0004*7C
$GPGGA,025541.20,3015.9411846,N,12007.1909173,E,4,37,0.4,11.9108,M,7.098,M,0.2,0004*72
$GPGGA,025541.30,3015.9411842,N,12007.1909173,E,4,37,0.4,11.9138,M,7.098,M,0.3,0004*75
$GPGGA,025541.40,3015.9411842,N,12007.1909177,E,4,37,0.4,11.9123,M,7.098,M,0.4,0004*7B
$GPGGA,025541.50,3015.9411850,N,12007.1909169,E,4,37,0.4,11.9152,M,7.098,M,0.5,0004*71
$GPGGA,025541.60,3015.9411849,N,12007.1909173,E,4,37,0.4,11.9150,M,7.098,M,0.6,0004*70
$GPGGA,025541.70,3015.9411847,N,12007.1909176,E,4,37,0.4,11.9153,M,7.098,M,0.7,0004*78
