$GPGGA,084547.10,3015.9200896,N,12007.1358831,E,4,33,0.5,3.9018,M,7.095,M,0.1,0004*4E
$GPGGA,084547.20,3015.9200899,N,12007.1358835,E,4,33,0.5,3.9002,M,7.095,M,0.2,0004*4E
$GPGGA,084547.30,3015.9200898,N,12007.1358835,E,4,33,0.5,3.9016,M,7.095,M,0.3,0004*4A
$GPGGA,084547.40,3015.9200896,N,12007.1358837,E,4,33,0.5,3.8994,M,7.095,M,0.4,0004*44
$GPGGA,084547.50,3015.9200902,N,12007.1358834,E,4,33,0.5,3.9004,M,7.095,M,0.5,0004*4A
$GPGGA,084547.60,3015.9200902,N,12007.1358838,E,4,33,0.5,3.8981,M,7.095,M,0.6,0004*43
$GPGGA,084547.70,3015.9200901,N,12007.1358837,E,4,33,0.5,3.8992,M,7.095,M,0.7,0004*4D
$GPGGA,084547.80,3015.9200904,N,12007.1358839,E,4,33,0.5,3.8993,M,7.095,M,0.8,0004*47
$GPGGA,084547.90,3015.9200905,N,12007.1358846,E,4,33,0.5,3.8989,M,7.095,M,0.9,0004*45
$GPGGA,084548.00,3015.9200904,N,12007.1358841,E,4,33,0.5,3.8998,M,7.095,M,1.0,0004*4D
$GPGGA,084548.10,3015.9200910,N,12007.1358833,E,4,33,0.5,3.8988,M,7.095,M,0.1,0004*4D
$GPGGA,084548.20,3015.9200905,N,12007.1358830,E,4,33,0.5,3.8982,M,7.095,M,0.2,0004*40
$GPGGA,084548.30,3015.9200906,N,12007.1358829,E,4,33,0.5,3.8976,M,7.095,M,0.3,0004*40
$GPGGA,084548.40,3015.9200905,N,12007.1358830,E,4,33,0.5,3.8983,M,7.095,M,0.4,0004*41
$GPGGA,084548.50,3015.9200902,N,12007.1358828,E,4,33,0.5,3.8981,M,7.095,M,0.5,0004*4D
$GPGGA,084548.60,3015.9200906,N,12007.1358835,E,4,33,0.5,3.8978,M,7.095,M,0.6,0004*43
$GPGGA,084548.70,3015.9200906,N,12007.1358835,E,4,33,0.5,3.8976,M,7.095,M,0.7,0004*4D
$GPGGA,084548.80,3015.9200898,N,12007.1358832,E,4,33,0.5,3.9008,M,7.095,M,0.8,0004*4D
$GPGGA,084548.90,3015.9200898,N,12007.1358842,E,4,33,0.5,3.9011,M,7.095,M,0.9,0004*42
$GPGGA,084549.00,3015.9200906,N,12007.1358836,E,4,33,0.5,3.8970,M,7.095,M,1.0,0004*48
$GPGGA,084549.10,3015.9200901,N,12007.1358847,E,4,33,0.5,3.9048,M,7.095,M,0.1,0004*4B
$GPGGA,084549.20,3015.9200900,N,12007.1358851,E,4,33,0.5,3.9016,M,7.095,M,0.2,0004*46
$GPGGA,084549.30,3015.9200900,N,12007.1358849,E,4,33,0.5,3.9036,M,7.095,M,0.3,0004*4D
$GPGGA,084549.40,3015.9200902,N,12007.1358856,E,4,33,0.5,3.9034,M,7.095,M,0.4,0004*43
$GPGGA,084549.50,3015.9200901,N,12007.1358855,E,4,33,0.5,3.9053,M,7.095,M,0.5,0004*42
$GPGGA,084549.60,3015.9200901,N,12007.1358853,E,4,33,0.5,3.9043,M,7.095,M,0.6,0004*45
$GPGGA,084549.70,3015.9200902,N,12007.1358860,E,4,33,0.5,3.9037,M,7.095,M,0.7,0004*45
$GPGGA,084549.80,3015.9200901,N,12007.1358859,E,4,33,0.5,3.9041,M,7.095,M,0.8,0004*4D
$GPGGA,084549.90,3015.9200900,N,12007.1358857,E,4,33,0.5,3.9062,M,7.095,M,0.9,0004*43
$GPGGA,084550.00,3015.9200897,N,12007.1358858,E,4,33,0.5,3.9026,M,7.095,M,1.0,0004*4A
$GPGGA,084550.10,3015.9200909,N,12007.1358852,E,4,33,0.5,3.9044,M,7.095,M,0.1,0004*43
$GPGGA,084550.20,3015.9200904,N,12007.1358848,E,4,33,0.5,3.9053,M,7.095,M,0.2,0004*43
$GPGGA,084550.30,3015.9200908,N,12007.1358847,E,4,33,0.5,3.9049,M,7.095,M,0.3,0004*4B
$GPGGA,084550.40,3015.9200902,N,12007.1358848,E,4,33,0.5,3.9035,M,7.095,M,0.4,0004*45
$GPGGA,084550.50,3015.9200903,N,12007.1358841,E,4,33,0.5,3.9028,M,7.095,M,0.5,0004*41
$GPGGA,084550.60,3015.9200902,N,12007.1358844,E,4,33,0.5,3.9021,M,7.095,M,0.6,0004*4C
$GPGGA,084550.70,3015.9200905,N,12007.1358845,E,4,33,0.5,3.9032,M,7.095,M,0.7,0004*48
$GPGGA,084550.80,3015.9200903,N,12007.1358840,E,4,33,0.5,3.9021,M,7.095,M,0.8,0004*49
$GPGGA,084550.90,3015.9200899,N,12007.1358845,E,4,33,0.5,3.9052,M,7.095,M,0.9,0004*4A
$GPGGA,084551.00,3015.9200903,N,12007.1358838,E,4,33,0.5,3.9021,M,7.095,M,1.0,0004*46
$GPGGA,084551.10,3015.9200897,N,12007.1358845,E,4,33,0.5,3.9026,M,7.095,M,0.1,0004*46
$GPGGA,084551.20,3015.9200899,N,12007.1358847,E,4,33,0.5,3.9017,M,7.095,M,0.2,0004*48
$GPGGA,084551.30,3015.9200900,N,12007.1358853,E,4,33,0.5,3.9017,M,7.095,M,0.3,0004*4C
$GPGGA,084551.40,3015.9200898,N,12007.1358853,E,4,33,0.5,3.9046,M,7.095,M,0.4,0004*48
$GPGGA,084551.50,3015.9200902,N,12007.1358853,E,4,33,0.5,3.9031,M,7.095,M,0.5,0004*4A
$GPGGA,084551.60,3015.9200906,N,12007.1358856,E,4,33,0.5,3.9019,M,7.095,M,0.6,0004*41
$GPGGA,084551.70,3015.9200900,N,12007.1358849,E,4,33,0.5,3.9013,M,7.095,M,0.7,0004*43
$GPGGA,084551.80,3015.9200899,N,12007.1358854,E,4,33,0.5,3.9016,M,7.095,M,0.8,0004*4B
$GPGGA,084551.90,3015.9200903,N,12007.1358852,E,4,33,0.5,3.9011,M,7.095,M,0.9,0004*48
$GPGGA,084552.00,3015.9200901,N,12007.1358847,E,4,33,0.5,3.8993,M,7.095,M,1.0,0004*4E
$GPGGA,084552.10,3015.9200904,N,12007.1358844,E,4,33,0.5,3.9059,M,7.095,M,0.1,0004*47
$GPGGA,084552.20,3015.9200906,N,12007.1358844,E,4,33,0.5,3.9051,M,7.095,M,0.2,0004*4D
$GPGGA,084552.30,3015.9200905,N,12007.1358843,E,4,33,0.5,3.9033,M,7.095,M,0.3,0004*4D
$GPGGA,084552.40,3015.9200908,N,12007.1358840,E,4,33,0.5,3.9030,M,7.095,M,0.4,0004*40
$GPGGA,084552.50,3015.9200905,N,12007.1358846,E,4,33,0.5,3.9049,M,7.095,M,0.5,0004*45
$GPGGA,084552.60,3015.9200907,N,12007.1358840,E,4,33,0.5,3.9029,M,7.095,M,0.6,0004*47
$GPGGA,084552.70,3015.9200903,N,12007.1358840,E,4,33,0.5,3.9034,M,7.095,M,0.7,0004*4F
$GPGGA,084552.80,3015.9200899,N,12007.1358838,E,4,33,0.5,3.9025,M,7.095,M,0.8,0004*42
$GPGGA,084552.90,3015.9200902,N,12007.1358843,E,4,33,0.5,3.9035,M,7.095,M,0.9,0004*4C
$GPGGA,084553.00,3015.9200901,N,12007.1358840,E,4,33,0.5,3.9042,M,7.095,M,1.0,0004*4C
$GPGGA,084553.10,3015.9200897,N,12007.1358842,E,4,33,0.5,3.9064,M,7.095,M,0.1,0004*45
$GPGGA,084553.20,3015.9200897,N,12007.1358838,E,4,33,0.5,3.9061,M,7.095,M,0.2,0004*4D
$GPGGA,084553.30,3015.9200898,N,12007.1358840,E,4,33,0.5,3.9079,M,7.095,M,0.3,0004*44
$GPGGA,084553.40,3015.9200897,N,12007.1358841,E,4,33,0.5,3.9061,M,7.095,M,0.4,0004*43
$GPGGA,084553.50,3015.9200900,N,12007.1358840,E,4,33,0.5,3.9063,M,7.095,M,0.5,0004*4F
$GPGGA,084553.60,3015.9200900,N,12007.1358844,E,4,33,0.5,3.9053,M,7.095,M,0.6,0004*48
$GPGGA,084553.70,3015.9200900,N,12007.1358844,E,4,33,0.5,3.9056,M,7.095,M,0.7,0004*4D
$GPGGA,084553.80,3015.9200900,N,12007.1358842,E,4,33,0.5,3.9052,M,7.095,M,0.8,0004*4F
$GPGGA,084553.90,3015.9200900,N,12007.1358839,E,4,33,0.5,3.9048,M,7.095,M,0.9,0004*48
$GPGGA,084554.00,3015.9200902,N,12007.1358841,E,4,33,0.5,3.9045,M,7.095,M,1.0,0004*4E
$GPGGA,084554.10,3015.9200905,N,12007.1358846,E,4,33,0.5,3.9048,M,7.095,M,0.1,0004*42
$GPGGA,084554.20,3015.9200908,N,12007.1358847,E,4,33,0.5,3.9038,M,7.095,M,0.2,0004*49
$GPGGA,084554.30,3015.9200908,N,12007.1358846,E,4,33,0.5,3.9026,M,7.095,M,0.3,0004*47
$GPGGA,084554.40,3015.9200914,N,12007.1358843,E,4,33,0.5,3.9039,M,7.095,M,0.4,0004*41
$GPGGA,084554.50,3015.9200906,N,12007.1358842,E,4,33,0.5,3.9035,M,7.095,M,0.5,0004*4F
$GPGGA,084554.60,3015.9200910,N,12007.1358848,E,4,33,0.5,3.9058,M,7.095,M,0.6,0004*49
$GPGGA,084554.70,3015.9200904,N,12007.1358848,E,4,33,0.5,3.9061,M,7.095,M,0.7,0004*46
$GPGGA,084554.80,3015.9200908,N,12007.1358849,E,4,33,0.5,3.9061,M,7.095,M,0.8,0004*4B
$GPGGA,084554.90,3015.9200906,N,12007.1358846,E,4,33,0.5,3.9043,M,7.095,M,0.9,0004*4A
$GPGGA,084555.00,3015.9200907,N,12007.1358847,E,4,33,0.5,3.9054,M,7.095,M,1.0,0004*4C
$GPGGA,084555.10,3015.9200902,N,12007.1358861,E,4,33,0.5,3.9027,M,7.095,M,0.1,0004*48
$GPGGA,084555.20,3015.9200908,N,12007.1358861,E,4,33,0.5,3.9032,M,7.095,M,0.2,0004*46
$GPGGA,084555.30,3015.9200909,N,12007.1358858,E,4,33,0.5,3.9005,M,7.095,M,0.3,0004*49
$GPGGA,084555.40,3015.9200911,N,12007.1358858,E,4,33,0.5,3.8970,M,7.095,M,0.4,0004*4A
$GPGGA,084555.50,3015.9200907,N,12007.1358856,E,4,33,0.5,3.8998,M,7.095,M,0.5,0004*45
$GPGGA,084555.60,3015.9200908,N,12007.1358854,E,4,33,0.5,3.9002,M,7.095,M,0.6,0004*43
$GPGGA,084555.70,3015.9200906,N,12007.1358852,E,4,33,0.5,3.8993,M,7.095,M,0.7,0004*4B
$GPGGA,084555.80,3015.9200907,N,12007.1358855,E,4,33,0.5,3.8994,M,7.095,M,0.8,0004*4A
$GPGGA,084555.90,3015.9200907,N,12007.1358857,E,4,33,0.5,3.8999,M,7.095,M,0.9,0004*45
$GPGGA,084556.00,3015.9200901,N,12007.1358849,E,4,33,0.5,3.8996,M,7.095,M,1.0,0004*41
$GPGGA,084556.10,3015.9200898,N,12007.1358850,E,4,33,0.5,3.9052,M,7.095,M,0.1,0004*49
$GPGGA,084556.20,3015.9200900,N,12007.1358852,E,4,33,0.5,3.9051,M,7.095,M,0.2,0004*48
$GPGGA,084556.30,3015.9200901,N,12007.1358846,E,4,33,0.5,3.9052,M,7.095,M,0.3,0004*4F
$GPGGA,084556.40,3015.9200900,N,12007.1358845,E,4,33,0.5,3.9054,M,7.095,M,0.4,0004*4B
$GPGGA,084556.50,3015.9200906,N,12007.1358839,E,4,33,0.5,3.9024,M,7.095,M,0.5,0004*41
$GPGGA,084556.60,3015.9200901,N,12007.1358848,E,4,33,0.5,3.9066,M,7.095,M,0.6,0004*46
$GPGGA,084556.70,3015.9200901,N,12007.1358840,E,4,33,0.5,3.9048,M,7.095,M,0.7,0004*42
$GPGGA,084556.80,3015.9200899,N,12007.1358843,E,4,33,0.5,3.9062,M,7.095,M,0.8,0004*49
$GPGGA,084556.90,3015.9200905,N,12007.1358846,E,4,33,0.5,3.9026,M,7.095,M,0.9,0004*48
$GPGGA,084557.00,3015.9200903,N,12007.1358845,E,4,33,0.5,3.9016,M,7.095,M,1.0,0004*4E
$GPGGA,084557.10,3015.9200903,N,12007.1358849,E,4,33,0.5,3.9029,M,7.095,M,0.1,0004*4F
$GPGGA,084557.20,3015.9200902,N,12007.1358846,E,4,33,0.5,3.9025,M,7.095,M,0.2,0004*4D
$GPGGA,084557.30,3015.9200904,N,12007.1358850,E,4,33,0.5,3.9031,M,7.095,M,0.3,0004*49
$GPGGA,084557.40,3015.9200901,N,12007.1358842,E,4,33,0.5,3.9029,M,7.095,M,0.4,0004*46
$GPGGA,084557.50,3015.9200905,N,12007.1358847,E,4,33,0.5,3.9020,M,7.095,M,0.5,0004*4E
$GPGGA,084557.60,3015.9200903,N,12007.1358856,E,4,33,0.5,3.9036,M,7.095,M,0.6,0004*4F
$GPGGA,084557.70,3015.9200908,N,12007.1358854,E,4,33,0.5,3.9001,M,7.095,M,0.7,0004*42
$GPGGA,084557.80,3015.9200902,N,12007.1358854,E,4,33,0.5,3.8991,M,7.095,M,0.8,0004*49
$GPGGA,084557.90,3015.9200905,N,12007.1358855,E,4,33,0.5,3.9019,M,7.095,M,0.9,0004*47
$GPGGA,084558.00,3015.9200901,N,12007.1358851,E,4,33,0.5,3.9002,M,7.095,M,1.0,0004*43
$GPGGA,084558.10,3015.9200907,N,12007.1358849,E,4,33,0.5,3.8997,M,7.095,M,0.1,0004*49
$GPGGA,084558.20,3015.9200907,N,12007.1358854,E,4,33,0.5,3.9008,M,7.095,M,0.2,0004*4B
$GPGGA,084558.30,3015.9200907,N,12007.1358851,E,4,33,0.5,3.9002,M,7.095,M,0.3,0004*44
$GPGGA,084558.40,3015.9200903,N,12007.1358851,E,4,33,0.5,3.9008,M,7.095,M,0.4,0004*4A
$GPGGA,084558.50,3015.9200904,N,12007.1358852,E,4,33,0.5,3.9010,M,7.095,M,0.5,0004*47
$GPGGA,084558.60,3015.9200905,N,12007.1358855,E,4,33,0.5,3.9004,M,7.095,M,0.6,0004*44
$GPGGA,084558.70,3015.9200900,N,12007.1358848,E,4,33,0.5,3.9016,M,7.095,M,0.7,0004*4E
$GPGGA,084558.80,3015.9200903,N,12007.1358851,E,4,33,0.5,3.9004,M,7.095,M,0.8,0004*46
$GPGGA,084558.90,3015.9200903,N,12007.1358845,E,4,33,0.5,3.8971,M,7.095,M,0.9,0004*49
$GPGGA,084559.00,3015.9200902,N,12007.1358849,E,4,33,0.5,3.8990,M,7.095,M,1.0,0004*4B
$GPGGA,084559.10,3015.9200907,N,12007.1358850,E,4,33,0.5,3.9035,M,7.095,M,0.1,0004*40
$GPGGA,084559.20,3015.9200902,N,12007.1358848,E,4,33,0.5,3.9029,M,7.095,M,0.2,0004*41
$GPGGA,084559.30,3015.9200908,N,12007.1358845,E,4,33,0.5,3.9006,M,7.095,M,0.3,0004*4B
$GPGGA,084559.40,3015.9200902,N,12007.1358847,E,4,33,0.5,3.9062,M,7.095,M,0.4,0004*41
$GPGGA,084559.50,3015.9200906,N,12007.1358852,E,4,33,0.5,3.9051,M,7.095,M,0.5,0004*41
$GPGGA,084559.60,3015.9200903,N,12007.1358847,E,4,33,0.5,3.9030,M,7.095,M,0.6,0004*47
$GPGGA,084559.70,3015.9200909,N,12007.1358850,E,4,33,0.5,3.9029,M,7.095,M,0.7,0004*43
$GPGGA,084559.80,3015.9200905,N,12007.1358849,E,4,33,0.5,3.9039,M,7.095,M,0.8,0004*46
$GPGGA,084559.90,3015.9200907,N,12007.1358847,E,4,33,0.5,3.9030,M,7.095,M,0.9,0004*43
$GPGGA,084600.00,3015.9200910,N,12007.1358858,E,4,33,0.5,3.9033,M,7.095,M,1.0,0004*46
$GPGGA,084600.10,3015.9200904,N,12007.1358841,E,4,33,0.5,3.9007,M,7.095,M,0.1,0004*4D
$GPGGA,084600.20,3015.9200906,N,12007.1358841,E,4,33,0.5,3.9000,M,7.095,M,0.2,0004*48
$GPGGA,084600.30,3015.9200908,N,12007.1358835,E,4,33,0.5,3.8977,M,7.095,M,0.3,0004*4D
$GPGGA,084600.40,3015.9200908,N,12007.1358836,E,4,33,0.5,3.8992,M,7.095,M,0.4,0004*45
$GPGGA,084600.50,3015.9200912,N,12007.1358843,E,4,33,0.5,3.8985,M,7.095,M,0.5,0004*4A
$GPGGA,084600.60,3015.9200912,N,12007.1358843,E,4,33,0.5,3.8975,M,7.095,M,0.6,0004*45
$GPGGA,084600.70,3015.9200911,N,12007.1358845,E,4,33,0.5,3.8972,M,7.095,M,0.7,0004*47
$GPGGA,084600.80,3015.9200911,N,12007.1358843,E,4,33,0.5,3.8975,M,7.095,M,0.8,0004*46
$GPGGA,084600.90,3015.9200909,N,12007.1358844,E,4,33,0.5,3.8980,M,7.095,M,0.9,0004*42
$GPGGA,084601.00,3015.9200907,N,12007.1358852,E,4,33,0.5,3.8986,M,7.095,M,1.0,0004*4D
$GPGGA,084601.10,3015.9200904,N,12007.1358840,E,4,33,0.5,3.9056,M,7.095,M,0.1,0004*49
$GPGGA,084601.20,3015.9200904,N,12007.1358845,E,4,33,0.5,3.9041,M,7.095,M,0.2,0004*4A
$GPGGA,084601.30,3015.9200906,N,12007.1358844,E,4,33,0.5,3.9028,M,7.095,M,0.3,0004*46
$GPGGA,084601.40,3015.9200910,N,12007.1358843,E,4,33,0.5,3.9021,M,7.095,M,0.4,0004*4F
$GPGGA,084601.50,3015.9200903,N,12007.1358843,E,4,33,0.5,3.9003,M,7.095,M,0.5,0004*4D
$GPGGA,084601.60,3015.9200903,N,12007.1358843,E,4,33,0.5,3.9018,M,7.095,M,0.6,0004*47
$GPGGA,084601.70,3015.9200904,N,12007.1358836,E,4,33,0.5,3.8993,M,7.095,M,0.7,0004*49
$GPGGA,084601.80,3015.9200907,N,12007.1358844,E,4,33,0.5,3.9008,M,7.095,M,0.8,0004*45
$GPGGA,084601.90,3015.9200908,N,12007.1358843,E,4,33,0.5,3.8989,M,7.095,M,0.9,0004*4C
$GPGGA,084602.00,3015.9200910,N,12007.1358846,E,4,33,0.5,3.9000,M,7.095,M,1.0,0004*4B
$GPGGA,084602.10,3015.9200899,N,12007.1358847,E,4,33,0.5,3.9049,M,7.095,M,0.1,0004*46
$GPGGA,084602.20,3015.9200904,N,12007.1358842,E,4,33,0.5,3.9029,M,7.095,M,0.2,0004*40
$GPGGA,084602.30,3015.9200902,N,12007.1358843,E,4,33,0.5,3.9027,M,7.095,M,0.3,0004*49
$GPGGA,084602.40,3015.9200895,N,12007.1358845,E,4,33,0.5,3.9033,M,7.095,M,0.4,0004*45
$GPGGA,084602.50,3015.9200898,N,12007.1358849,E,4,33,0.5,3.9026,M,7.095,M,0.5,0004*40
$GPGGA,084602.60,3015.9200896,N,12007.1358848,E,4,33,0.5,3.9025,M,7.095,M,0.6,0004*4C
$GPGGA,084602.70,3015.9200897,N,12007.1358839,E,4,33,0.5,3.9027,M,7.095,M,0.7,0004*49
$GPGGA,084602.80,3015.9200896,N,12007.1358839,E,4,33,0.5,3.9034,M,7.095,M,0.8,0004*4A
$GPGGA,084602.90,3015.9200900,N,12007.1358847,E,4,33,0.5,3.9004,M,7.095,M,0.9,0004*4E
$GPGGA,084603.00,3015.9200891,N,12007.1358839,E,4,33,0.5,3.9019,M,7.095,M,1.0,0004*42
$GPGGA,084603.10,3015.9200903,N,12007.1358852,E,4,33,0.5,3.9065,M,7.095,M,0.1,0004*4F
$GPGGA,084603.20,3015.9200903,N,12007.1358853,E,4,33,0.5,3.9053,M,7.095,M,0.2,0004*4B
$GPGGA,084603.30,3015.9200897,N,12007.1358848,E,4,33,0.5,3.9050,M,7.095,M,0.3,0004*4E
$GPGGA,084603.40,3015.9200903,N,12007.1358855,E,4,33,0.5,3.9045,M,7.095,M,0.4,0004*4A
$GPGGA,084603.50,3015.9200906,N,12007.1358850,E,4,33,0.5,3.9031,M,7.095,M,0.5,0004*49
$GPGGA,084603.60,3015.9200905,N,12007.1358847,E,4,33,0.5,3.9008,M,7.095,M,0.6,0004*46
$GPGGA,084603.70,3015.9200903,N,12007.1358854,E,4,33,0.5,3.9006,M,7.095,M,0.7,0004*4C
$GPGGA,084603.80,3015.9200903,N,12007.1358846,E,4,33,0.5,3.8984,M,7.095,M,0.8,0004*4D
$GPGGA,084603.90,3015.9200904,N,12007.1358852,E,4,33,0.5,3.8991,M,7.095,M,0.9,0004*4B
$GPGGA,084604.00,3015.9200903,N,12007.1358848,E,4,33,0.5,3.9001,M,7.095,M,1.0,0004*40
$GPGGA,084604.10,3015.9200897,N,12007.1358835,E,4,33,0.5,3.9023,M,7.095,M,0.1,0004*47
$GPGGA,084604.20,3015.9200903,N,12007.1358842,E,4,33,0.5,3.9008,M,7.095,M,0.2,0004*42
$GPGGA,084604.30,3015.9200897,N,12007.1358828,E,4,33,0.5,3.8987,M,7.095,M,0.3,0004*4D
$GPGGA,084604.40,3015.9200898,N,12007.1358837,E,4,33,0.5,3.9012,M,7.095,M,0.4,0004*48
$GPGGA,084604.50,3015.9200893,N,12007.1358838,E,4,33,0.5,3.9003,M,7.095,M,0.5,0004*4C
$GPGGA,084604.60,3015.9200896,N,12007.1358836,E,4,33,0.5,3.9024,M,7.095,M,0.6,0004*42
$GPGGA,084604.70,3015.9200895,N,12007.1358831,E,4,33,0.5,3.9008,M,7.095,M,0.7,0004*48
$GPGGA,084604.80,3015.9200894,N,12007.1358835,E,4,33,0.5,3.9007,M,7.095,M,0.8,0004*42
$GPGGA,084604.90,3015.9200894,N,12007.1358841,E,4,33,0.5,3.9023,M,7.095,M,0.9,0004*47
$GPGGA,084605.00,3015.9200895,N,12007.1358839,E,4,33,0.5,3.9024,M,7.095,M,1.0,0004*4E
$GPGGA,084605.10,3015.9200907,N,12007.1358846,E,4,33,0.5,3.9010,M,7.095,M,0.1,0004*4A
$GPGGA,084605.20,3015.9200901,N,12007.1358840,E,4,33,0.5,3.9002,M,7.095,M,0.2,0004*49
$GPGGA,084605.30,3015.9200909,N,12007.1358844,E,4,33,0.5,3.8997,M,7.095,M,0.3,0004*41
$GPGGA,084605.40,3015.9200910,N,12007.1358838,E,4,33,0.5,3.9009,M,7.095,M,0.4,0004*4D
$GPGGA,084605.50,3015.9200901,N,12007.1358836,E,4,33,0.5,3.9000,M,7.095,M,0.5,0004*4A
$GPGGA,084605.60,3015.9200905,N,12007.1358844,E,4,33,0.5,3.9000,M,7.095,M,0.6,0004*4B
$GPGGA,084605.70,3015.9200901,N,12007.1358844,E,4,33,0.5,3.9009,M,7.095,M,0.7,0004*46
$GPGGA,084605.80,3015.9200901,N,12007.1358839,E,4,33,0.5,3.8998,M,7.095,M,0.8,0004*4C
$GPGGA,084605.90,3015.9200907,N,12007.1358840,E,4,33,0.5,3.8976,M,7.095,M,0.9,0004*44
$GPGGA,084606.00,3015.9200905,N,12007.1358840,E,4,33,0.5,3.8984,M,7.095,M,1.0,0004*49
$GPGGA,084606.10,3015.9200904,N,12007.1358843,E,4,33,0.5,3.9035,M,7.095,M,0.1,0004*48
$GPGGA,084606.20,3015.9200907,N,12007.1358838,E,4,33,0.5,3.9009,M,7.095,M,0.2,0004*48
$GPGGA,084606.30,3015.9200908,N,12007.1358848,E,4,33,0.5,3.9029,M,7.095,M,0.3,0004*42
$GPGGA,084606.40,3015.9200902,N,12007.1358840,E,4,33,0.5,3.9010,M,7.095,M,0.4,0004*4A
$GPGGA,084606.50,3015.9200905,N,12007.1358845,E,4,33,0.5,3.9012,M,7.095,M,0.5,0004*4A
$GPGGA,084606.60,3015.9200903,N,12007.1358838,E,4,33,0.5,3.8995,M,7.095,M,0.6,0004*41
$GPGGA,084606.70,3015.9200900,N,12007.1358843,E,4,33,0.5,3.9007,M,7.095,M,0.7,0004*4D
$GPGGA,084606.80,3015.9200905,N,12007.1358845,E,4,33,0.5,3.9013,M,7.095,M,0.8,0004*4B
$GPGGA,084606.90,3015.9200897,N,12007.1358842,E,4,33,0.5,3.9002,M,7.095,M,0.9,0004*46
$GPGGA,084607.00,3015.9200898,N,12007.1358845,E,4,33,0.5,3.9008,M,7.095,M,1.0,0004*44
$GPGGA,084607.10,3015.9200903,N,12007.1358839,E,4,33,0.5,3.9037,M,7.095,M,0.1,0004*41
$GPGGA,084607.20,3015.9200903,N,12007.1358844,E,4,33,0.5,3.9045,M,7.095,M,0.2,0004*4E
$GPGGA,084607.30,3015.9200905,N,12007.1358844,E,4,33,0.5,3.9043,M,7.095,M,0.3,0004*4E
$GPGGA,084607.40,3015.9200906,N,12007.1358844,E,4,33,0.5,3.9032,M,7.095,M,0.4,0004*4B
$GPGGA,084607.50,3015.9200896,N,12007.1358838,E,4,33,0.5,3.9034,M,7.095,M,0.5,0004*4E
$GPGGA,084607.60,3015.9200910,N,12007.1358841,E,4,33,0.5,3.9023,M,7.095,M,0.6,0004*49
$GPGGA,084607.70,3015.9200906,N,12007.1358850,E,4,33,0.5,3.9034,M,7.095,M,0.7,0004*48
$GPGGA,084607.80,3015.9200906,N,12007.1358849,E,4,33,0.5,3.9039,M,7.095,M,0.8,0004*4D
$GPGGA,084607.90,3015.9200907,N,12007.1358852,E,4,33,0.5,3.9030,M,7.095,M,0.9,0004*4F
$GPGGA,084608.00,3015.9200907,N,12007.1358848,E,4,33,0.5,3.9060,M,7.095,M,1.0,0004*4F
$GPGGA,084608.10,3015.9200899,N,12007.1358844,E,4,33,0.5,3.9038,M,7.095,M,0.1,0004*49
$GPGGA,084608.20,3015.9200893,N,12007.1358845,E,4,33,0.5,3.9048,M,7.095,M,0.2,0004*45
$GPGGA,084608.30,3015.9200896,N,12007.1358846,E,4,33,0.5,3.8998,M,7.095,M,0.3,0004*46
$GPGGA,084608.40,3015.9200894,N,12007.1358850,E,4,33,0.5,3.9029,M,7.095,M,0.4,0004*41
$GPGGA,084608.50,3015.9200894,N,12007.1358845,E,4,33,0.5,3.9018,M,7.095,M,0.5,0004*47
$GPGGA,084608.60,3015.9200898,N,12007.1358845,E,4,33,0.5,3.9027,M,7.095,M,0.6,0004*47
$GPGGA,084608.70,3015.9200896,N,12007.1358849,E,4,33,0.5,3.9033,M,7.095,M,0.7,0004*40
$GPGGA,084608.80,3015.9200893,N,12007.1358848,E,4,33,0.5,3.9049,M,7.095,M,0.8,0004*49
$GPGGA,084608.90,3015.9200895,N,12007.1358844,E,4,33,0.5,3.9028,M,7.095,M,0.9,0004*44
$GPGGA,084609.00,3015.9200893,N,12007.1358847,E,4,33,0.5,3.9032,M,7.095,M,1.0,0004*4A
$GPGGA,084609.10,3015.9200908,N,12007.1358857,E,4,33,0.5,3.9070,M,7.095,M,0.1,0004*4F
$GPGGA,084609.20,3015.9200911,N,12007.1358852,E,4,33,0.5,3.9062,M,7.095,M,0.2,0004*41
$GPGGA,084609.30,3015.9200908,N,12007.1358853,E,4,33,0.5,3.9063,M,7.095,M,0.3,0004*49
$GPGGA,084609.40,3015.9200906,N,12007.1358858,E,4,33,0.5,3.9071,M,7.095,M,0.4,0004*4F
$GPGGA,084609.50,3015.9200906,N,12007.1358853,E,4,33,0.5,3.9061,M,7.095,M,0.5,0004*45
$GPGGA,084609.60,3015.9200904,N,12007.1358856,E,4,33,0.5,3.9065,M,7.095,M,0.6,0004*46
$GPGGA,084609.70,3015.9200904,N,12007.1358861,E,4,33,0.5,3.9076,M,7.095,M,0.7,0004*40
$GPGGA,084609.80,3015.9200904,N,12007.1358857,E,4,33,0.5,3.9063,M,7.095,M,0.8,0004*41
$GPGGA,084609.90,3015.9200907,N,12007.1358863,E,4,33,0.5,3.9061,M,7.095,M,0.9,0004*47
$GPGGA,084610.00,3015.9200906,N,12007.1358857,E,4,33,0.5,3.9058,M,7.095,M,1.0,0004*42
$GPGGA,084610.10,3015.9200906,N,12007.1358852,E,4,33,0.5,3.9073,M,7.095,M,0.1,0004*4F
$GPGGA,084610.20,3015.9200898,N,12007.1358859,E,4,33,0.5,3.9091,M,7.095,M,0.2,0004*4E
$GPGGA,084610.30,3015.9200898,N,12007.1358851,E,4,33,0.5,3.9077,M,7.095,M,0.3,0004*4E
$GPGGA,084610.40,3015.9200901,N,12007.1358851,E,4,33,0.5,3.9083,M,7.095,M,0.4,0004*44
$GPGGA,084610.50,3015.9200906,N,12007.1358855,E,4,33,0.5,3.9058,M,7.095,M,0.5,0004*41
$GPGGA,084610.60,3015.9200905,N,12007.1358851,E,4,33,0.5,3.9063,M,7.095,M,0.6,0004*4E
$GPGGA,084610.70,3015.9200901,N,12007.1358855,E,4,33,0.5,3.9075,M,7.095,M,0.7,0004*49
$GPGGA,084610.80,3015.9200902,N,12007.1358858,E,4,33,0.5,3.9065,M,7.095,M,0.8,0004*46
$GPGGA,084610.90,3015.9200899,N,12007.1358852,E,4,33,0.5,3.9072,M,7.095,M,0.9,0004*49
$GPGGA,084611.00,3015.9200902,N,12007.1358859,E,4,33,0.5,3.9054,M,7.095,M,1.0,0004*45
$GPGGA,084611.10,3015.9200906,N,12007.1358849,E,4,33,0.5,3.9076,M,7.095,M,0.1,0004*41
$GPGGA,084611.20,3015.9200903,N,12007.1358853,E,4,33,0.5,3.9086,M,7.095,M,0.2,0004*40
$GPGGA,084611.30,3015.9200909,N,12007.1358858,E,4,33,0.5,3.9057,M,7.095,M,0.3,0004*4D
$GPGGA,084611.40,3015.9200905,N,12007.1358852,E,4,33,0.5,3.9073,M,7.095,M,0.4,0004*4D
$GPGGA,084611.50,3015.9200906,N,12007.1358848,E,4,33,0.5,3.9083,M,7.095,M,0.5,0004*4A
$GPGGA,084611.60,3015.9200903,N,12007.1358854,E,4,33,0.5,3.9066,M,7.095,M,0.6,0004*49
$GPGGA,084611.70,3015.9200909,N,12007.1358854,E,4,33,0.5,3.9068,M,7.095,M,0.7,0004*4D
$GPGGA,084611.80,3015.9200907,N,12007.1358857,E,4,33,0.5,3.9067,M,7.095,M,0.8,0004*4F
$GPGGA,084611.90,3015.9200910,N,12007.1358856,E,4,33,0.5,3.9052,M,7.095,M,0.9,0004*4E
$GPGGA,084612.00,3015.9200910,N,12007.1358856,E,4,33,0.5,3.9045,M,7.095,M,1.0,0004*4A
$GPGGA,084612.10,3015.9200898,N,12007.1358847,E,4,33,0.5,3.9060,M,7.095,M,0.1,0004*4D
$GPGGA,084612.20,3015.9200902,N,12007.1358855,E,4,33,0.5,3.9057,M,7.095,M,0.2,0004*48
$GPGGA,084612.30,3015.9200899,N,12007.1358854,E,4,33,0.5,3.9065,M,7.095,M,0.3,0004*4B
$GPGGA,084612.40,3015.9200900,N,12007.1358849,E,4,33,0.5,3.9028,M,7.095,M,0.4,0004*4F
$GPGGA,084612.50,3015.9200898,N,12007.1358858,E,4,33,0.5,3.9065,M,7.095,M,0.5,0004*46
$GPGGA,084612.60,3015.9200905,N,12007.1358852,E,4,33,0.5,3.9028,M,7.095,M,0.6,0004*40
$GPGGA,084612.70,3015.9200900,N,12007.1358848,E,4,33,0.5,3.9034,M,7.095,M,0.7,0004*43
$GPGGA,084612.80,3015.9200899,N,12007.1358857,E,4,33,0.5,3.9029,M,7.095,M,0.8,0004*40
$GPGGA,084612.90,3015.9200896,N,12007.1358851,E,4,33,0.5,3.9046,M,7.095,M,0.9,0004*40
$GPGGA,084613.00,3015.9200896,N,12007.1358856,E,4,33,0.5,3.9031,M,7.095,M,1.0,0004*47
$GPGGA,084613.10,3015.9200897,N,12007.1358847,E,4,33,0.5,3.9069,M,7.095,M,0.1,0004*4A
$GPGGA,084613.20,3015.9200899,N,12007.1358848,E,4,33,0.5,3.9059,M,7.095,M,0.2,0004*48
$GPGGA,084613.30,3015.9200901,N,12007.1358850,E,4,33,0.5,3.9077,M,7.095,M,0.3,0004*4D
$GPGGA,084613.40,3015.9200900,N,12007.1358850,E,4,33,0.5,3.9037,M,7.095,M,0.4,0004*48
$GPGGA,084613.50,3015.9200896,N,12007.1358849,E,4,33,0.5,3.9061,M,7.095,M,0.5,0004*4D
$GPGGA,084613.60,3015.9200899,N,12007.1358849,E,4,33,0.5,3.9071,M,7.095,M,0.6,0004*43
$GPGGA,084613.70,3015.9200902,N,12007.1358841,E,4,33,0.5,3.9034,M,7.095,M,0.7,0004*49
$GPGGA,084613.80,3015.9200898,N,12007.1358847,E,4,33,0.5,3.9050,M,7.095,M,0.8,0004*4F
$GPGGA,084613.90,3015.9200897,N,12007.1358853,E,4,33,0.5,3.9044,M,7.095,M,0.9,0004*40
$GPGGA,084614.00,3015.9200895,N,12007.1358846,E,4,33,0.5,3.9024,M,7.095,M,1.0,0004*46
$GPGGA,084614.10,3015.9200902,N,12007.1358849,E,4,33,0.5,3.9067,M,7.095,M,0.1,0004*40
$GPGGA,084614.20,3015.9200901,N,12007.1358844,E,4,33,0.5,3.9074,M,7.095,M,0.2,0004*4C
$GPGGA,084614.30,3015.9200899,N,12007.1358850,E,4,33,0.5,3.9063,M,7.095,M,0.3,0004*4F
$GPGGA,084614.40,3015.9200902,N,12007.1358852,E,4,33,0.5,3.9077,M,7.095,M,0.4,0004*4B
$GPGGA,084614.50,3015.9200902,N,12007.1358849,E,4,33,0.5,3.9064,M,7.095,M,0.5,0004*43
$GPGGA,084614.60,3015.9200904,N,12007.1358852,E,4,33,0.5,3.9075,M,7.095,M,0.6,0004*4F
$GPGGA,084614.70,3015.9200900,N,12007.1358854,E,4,33,0.5,3.9079,M,7.095,M,0.7,0004*41
$GPGGA,084614.80,3015.9200902,N,12007.1358853,E,4,33,0.5,3.9097,M,7.095,M,0.8,0004*44
$GPGGA,084614.90,3015.9200900,N,12007.1358857,E,4,33,0.5,3.9079,M,7.095,M,0.9,0004*42
$GPGGA,084615.00,3015.9200906,N,12007.1358862,E,4,33,0.5,3.9088,M,7.095,M,1.0,0004*4C
$GPGGA,084615.10,3015.9200899,N,12007.1358843,E,4,33,0.5,3.9012,M,7.095,M,0.1,0004*4A
$GPGGA,084615.20,3015.9200902,N,12007.1358850,E,4,33,0.5,3.9019,M,7.095,M,0.2,0004*40
$GPGGA,084615.30,3015.9200904,N,12007.1358853,E,4,33,0.5,3.9008,M,7.095,M,0.3,0004*45
$GPGGA,084615.40,3015.9200903,N,12007.1358861,E,4,33,0.5,3.9006,M,7.095,M,0.4,0004*4D
$GPGGA,084615.50,3015.9200901,N,12007.1358850,E,4,33,0.5,3.8994,M,7.095,M,0.5,0004*4E
$GPGGA,084615.60,3015.9200904,N,12007.1358855,E,4,33,0.5,3.9006,M,7.095,M,0.6,0004*4D
$GPGGA,084615.70,3015.9200900,N,12007.1358853,E,4,33,0.5,3.8997,M,7.095,M,0.7,0004*4F
$GPGGA,084615.80,3015.9200900,N,12007.1358846,E,4,33,0.5,3.8995,M,7.095,M,0.8,0004*49
$GPGGA,084615.90,3015.9200903,N,12007.1358857,E,4,33,0.5,3.8991,M,7.095,M,0.9,0004*4E
$GPGGA,084616.00,3015.9200901,N,12007.1358855,E,4,33,0.5,3.8997,M,7.095,M,1.0,0004*4A
$GPGGA,084616.10,3015.9200903,N,12007.1358852,E,4,33,0.5,3.9081,M,7.095,M,0.1,0004*41
$GPGGA,084616.20,3015.9200907,N,12007.1358850,E,4,33,0.5,3.9063,M,7.095,M,0.2,0004*4B
$GPGGA,084616.30,3015.9200902,N,12007.1358847,E,4,33,0.5,3.9079,M,7.095,M,0.3,0004*43
$GPGGA,084616.40,3015.9200902,N,12007.1358848,E,4,33,0.5,3.9075,M,7.095,M,0.4,0004*40
$GPGGA,084616.50,3015.9200906,N,12007.1358852,E,4,33,0.5,3.9058,M,7.095,M,0.5,0004*40
$GPGGA,084616.60,3015.9200905,N,12007.1358847,E,4,33,0.5,3.9068,M,7.095,M,0.6,0004*44
$GPGGA,084616.70,3015.9200901,N,12007.1358856,E,4,33,0.5,3.9066,M,7.095,M,0.7,0004*4E
$GPGGA,084616.80,3015.9200902,N,12007.1358849,E,4,33,0.5,3.9046,M,7.095,M,0.8,0004*41
$GPGGA,084616.90,3015.9200902,N,12007.1358852,E,4,33,0.5,3.9064,M,7.095,M,0.9,0004*4B
$GPGGA,084617.00,3015.9200904,N,12007.1358847,E,4,33,0.5,3.9043,M,7.095,M,1.0,0004*4C
$GPGGA,084617.10,3015.9200904,N,12007.1358846,E,4,33,0.5,3.9078,M,7.095,M,0.1,0004*44
$GPGGA,084617.20,3015.9200900,N,12007.1358839,E,4,33,0.5,3.9062,M,7.095,M,0.2,0004*43
$GPGGA,084617.30,3015.9200904,N,12007.1358846,E,4,33,0.5,3.9081,M,7.095,M,0.3,0004*42
$GPGGA,084617.40,3015.9200899,N,12007.1358841,E,4,33,0.5,3.9063,M,7.095,M,0.4,0004*4C
$GPGGA,084617.50,3015.9200902,N,12007.1358838,E,4,33,0.5,3.9042,M,7.095,M,0.5,0004*42
$GPGGA,084617.60,3015.9200905,N,12007.1358840,E,4,33,0.5,3.9035,M,7.095,M,0.6,0004*4A
$GPGGA,084617.70,3015.9200904,N,12007.1358841,E,4,33,0.5,3.9066,M,7.095,M,0.7,0004*4C
$GPGGA,084617.80,3015.9200905,N,12007.1358840,E,4,33,0.5,3.9037,M,7.095,M,0.8,0004*48
$GPGGA,084617.90,3015.9200902,N,12007.1358841,E,4,33,0.5,3.9034,M,7.095,M,0.9,0004*4D
$GPGGA,084618.00,3015.9200901,N,12007.1358837,E,4,33,0.5,3.9032,M,7.095,M,1.0,0004*47
$GPGGA,084618.10,3015.9200890,N,12007.1358846,E,4,33,0.5,3.9095,M,7.095,M,0.1,0004*44
$GPGGA,084618.20,3015.9200898,N,12007.1358849,E,4,33,0.5,3.9094,M,7.095,M,0.2,0004*42
$GPGGA,084618.30,3015.9200895,N,12007.1358852,E,4,33,0.5,3.9092,M,7.095,M,0.3,0004*43
$GPGGA,084618.40,3015.9200898,N,12007.1358847,E,4,33,0.5,3.9066,M,7.095,M,0.4,0004*41
$GPGGA,084618.50,3015.9200893,N,12007.1358856,E,4,33,0.5,3.9102,M,7.095,M,0.5,0004*49
$GPGGA,084618.60,3015.9200893,N,12007.1358849,E,4,33,0.5,3.9074,M,7.095,M,0.6,0004*47
$GPGGA,084618.70,3015.9200900,N,12007.1358851,E,4,33,0.5,3.9048,M,7.095,M,0.7,0004*4A
$GPGGA,084618.80,3015.9200893,N,12007.1358850,E,4,33,0.5,3.9057,M,7.095,M,0.8,0004*4E
$GPGGA,084618.90,3015.9200895,N,12007.1358854,E,4,33,0.5,3.9069,M,7.095,M,0.9,0004*41
$GPGGA,084619.00,3015.9200895,N,12007.1358856,E,4,33,0.5,3.9073,M,7.095,M,1.0,0004*48
$GPGGA,084619.10,3015.9200895,N,12007.1358852,E,4,33,0.5,3.9081,M,7.095,M,0.1,0004*40
$GPGGA,084619.20,3015.9200895,N,12007.1358849,E,4,33,0.5,3.9105,M,7.095,M,0.2,0004*47
$GPGGA,084619.30,3015.9200896,N,12007.1358843,E,4,33,0.5,3.9082,M,7.095,M,0.3,0004*40
$GPGGA,084619.40,3015.9200891,N,12007.1358843,E,4,33,0.5,3.9086,M,7.095,M,0.4,0004*43
$GPGGA,084619.50,3015.9200892,N,12007.1358846,E,4,33,0.5,3.9069,M,7.095,M,0.5,0004*44
$GPGGA,084619.60,3015.9200897,N,12007.1358849,E,4,33,0.5,3.9082,M,7.095,M,0.6,0004*4B
$GPGGA,084619.70,3015.9200893,N,12007.1358852,E,4,33,0.5,3.9099,M,7.095,M,0.7,0004*4F
$GPGGA,084619.80,3015.9200897,N,12007.1358843,E,4,33,0.5,3.9055,M,7.095,M,0.8,0004*4B
$GPGGA,084619.90,3015.9200895,N,12007.1358846,E,4,33,0.5,3.9060,M,7.095,M,0.9,0004*4A
$GPGGA,084620.00,3015.9200895,N,12007.1358842,E,4,33,0.5,3.9062,M,7.095,M,1.0,0004*47
$GPGGA,084620.10,3015.9200896,N,12007.1358841,E,4,33,0.5,3.9067,M,7.095,M,0.1,0004*43
$GPGGA,084620.20,3015.9200900,N,12007.1358840,E,4,33,0.5,3.9040,M,7.095,M,0.2,0004*49
$GPGGA,084620.30,3015.9200898,N,12007.1358835,E,4,33,0.5,3.9061,M,7.095,M,0.3,0004*48
$GPGGA,084620.40,3015.9200893,N,12007.1358843,E,4,33,0.5,3.9087,M,7.095,M,0.4,0004*4A
$GPGGA,084620.50,3015.9200895,N,12007.1358849,E,4,33,0.5,3.9075,M,7.095,M,0.5,0004*4B
$GPGGA,084620.60,3015.9200890,N,12007.1358844,E,4,33,0.5,3.9095,M,7.095,M,0.6,0004*4D
$GPGGA,084620.70,3015.9200897,N,12007.1358851,E,4,33,0.5,3.9084,M,7.095,M,0.7,0004*4E
$GPGGA,084620.80,3015.9200898,N,12007.1358854,E,4,33,0.5,3.9076,M,7.095,M,0.8,0004*49
$GPGGA,084620.90,3015.9200892,N,12007.1358852,E,4,33,0.5,3.9100,M,7.095,M,0.9,0004*45
$GPGGA,084621.00,3015.9200894,N,12007.1358849,E,4,33,0.5,3.9054,M,7.095,M,1.0,0004*49
$GPGGA,084621.10,3015.9200913,N,12007.1358842,E,4,33,0.5,3.9030,M,7.095,M,0.1,0004*4F
$GPGGA,084621.20,3015.9200903,N,12007.1358848,E,4,33,0.5,3.9047,M,7.095,M,0.2,0004*44
$GPGGA,084621.30,3015.9200913,N,12007.1358850,E,4,33,0.5,3.9026,M,7.095,M,0.3,0004*4B
$GPGGA,084621.40,3015.9200912,N,12007.1358852,E,4,33,0.5,3.9029,M,7.095,M,0.4,0004*47
$GPGGA,084621.50,3015.9200901,N,12007.1358837,E,4,33,0.5,3.9064,M,7.095,M,0.5,0004*4F
$GPGGA,084621.60,3015.9200909,N,12007.1358845,E,4,33,0.5,3.9074,M,7.095,M,0.6,0004*43
$GPGGA,084621.70,3015.9200914,N,12007.1358845,E,4,33,0.5,3.9037,M,7.095,M,0.7,0004*48
$GPGGA,084621.80,3015.9200909,N,12007.1358843,E,4,33,0.5,3.9055,M,7.095,M,0.8,0004*46
$GPGGA,084621.90,3015.9200903,N,12007.1358857,E,4,33,0.5,3.9103,M,7.095,M,0.9,0004*4B
$GPGGA,084622.00,3015.9200900,N,12007.1358851,E,4,33,0.5,3.9073,M,7.095,M,1.0,0004*4A
$GPGGA,084622.10,3015.9200900,N,12007.1358842,E,4,33,0.5,3.9096,M,7.095,M,0.1,0004*42
$GPGGA,084622.20,3015.9200902,N,12007.1358844,E,4,33,0.5,3.9069,M,7.095,M,0.2,0004*46
$GPGGA,084622.30,3015.9200903,N,12007.1358840,E,4,33,0.5,3.9093,M,7.095,M,0.3,0004*46
$GPGGA,084622.40,3015.9200908,N,12007.1358840,E,4,33,0.5,3.9077,M,7.095,M,0.4,0004*47
$GPGGA,084622.50,3015.9200900,N,12007.1358843,E,4,33,0.5,3.9089,M,7.095,M,0.5,0004*4D
$GPGGA,084622.60,3015.9200900,N,12007.1358845,E,4,33,0.5,3.9044,M,7.095,M,0.6,0004*4A
$GPGGA,084622.70,3015.9200900,N,12007.1358841,E,4,33,0.5,3.9060,M,7.095,M,0.7,0004*48
$GPGGA,084622.80,3015.9200900,N,12007.1358841,E,4,33,0.5,3.9063,M,7.095,M,0.8,0004*4B
$GPGGA,084622.90,3015.9200897,N,12007.1358836,E,4,33,0.5,3.9062,M,7.095,M,0.9,0004*45
$GPGGA,084623.00,3015.9200904,N,12007.1358840,E,4,33,0.5,3.9022,M,7.095,M,1.0,0004*4B
$GPGGA,084623.10,3015.9200902,N,12007.1358840,E,4,33,0.5,3.9043,M,7.095,M,0.1,0004*4B
$GPGGA,084623.20,3015.9200897,N,12007.1358842,E,4,33,0.5,3.9021,M,7.095,M,0.2,0004*40
$GPGGA,084623.30,3015.9200902,N,12007.1358843,E,4,33,0.5,3.9022,M,7.095,M,0.3,0004*4F
$GPGGA,084623.40,3015.9200904,N,12007.1358847,E,4,33,0.5,3.9009,M,7.095,M,0.4,0004*44
$GPGGA,084623.50,3015.9200904,N,12007.1358847,E,4,33,0.5,3.9018,M,7.095,M,0.5,0004*44
$GPGGA,084623.60,3015.9200903,N,12007.1358845,E,4,33,0.5,3.8999,M,7.095,M,0.6,0004*40
$GPGGA,084623.70,3015.9200905,N,12007.1358849,E,4,33,0.5,3.9010,M,7.095,M,0.7,0004*43
$GPGGA,084623.80,3015.9200904,N,12007.1358842,E,4,33,0.5,3.8998,M,7.095,M,0.8,0004*41
$GPGGA,084623.90,3015.9200910,N,12007.1358849,E,4,33,0.5,3.9003,M,7.095,M,0.9,0004*45
$GPGGA,084624.00,3015.9200904,N,12007.1358849,E,4,33,0.5,3.9006,M,7.095,M,1.0,0004*43
$GPGGA,084624.10,3015.9200905,N,12007.1358838,E,4,33,0.5,3.9089,M,7.095,M,0.1,0004*42
$GPGGA,084624.20,3015.9200905,N,12007.1358836,E,4,33,0.5,3.9077,M,7.095,M,0.2,0004*4D
$GPGGA,084624.30,3015.9200909,N,12007.1358835,E,4,33,0.5,3.9070,M,7.095,M,0.3,0004*45
$GPGGA,084624.40,3015.9200901,N,12007.1358830,E,4,33,0.5,3.9074,M,7.095,M,0.4,0004*4C
$GPGGA,084624.50,3015.9200904,N,12007.1358841,E,4,33,0.5,3.9058,M,7.095,M,0.5,0004*41
$GPGGA,084624.60,3015.9200905,N,12007.1358831,E,4,33,0.5,3.9080,M,7.095,M,0.6,0004*42
$GPGGA,084624.70,3015.9200904,N,12007.1358841,E,4,33,0.5,3.9076,M,7.095,M,0.7,0004*4D
$GPGGA,084624.80,3015.9200897,N,12007.1358840,E,4,33,0.5,3.9084,M,7.095,M,0.8,0004*4A
$GPGGA,084624.90,3015.9200904,N,12007.1358836,E,4,33,0.5,3.9072,M,7.095,M,0.9,0004*49
$GPGGA,084625.00,3015.9200898,N,12007.1358841,E,4,33,0.5,3.9071,M,7.095,M,1.0,0004*4E
$GPGGA,084625.10,3015.9200903,N,12007.1358853,E,4,33,0.5,3.9038,M,7.095,M,0.1,0004*42
$GPGGA,084625.20,3015.9200903,N,12007.1358853,E,4,33,0.5,3.9041,M,7.095,M,0.2,0004*4C
$GPGGA,084625.30,3015.9200902,N,12007.1358856,E,4,33,0.5,3.9050,M,7.095,M,0.3,0004*48
$GPGGA,084625.40,3015.9200902,N,12007.1358860,E,4,33,0.5,3.9061,M,7.095,M,0.4,0004*4F
$GPGGA,084625.50,3015.9200900,N,12007.1358853,E,4,33,0.5,3.9078,M,7.095,M,0.5,0004*45
$GPGGA,084625.60,3015.9200900,N,12007.1358854,E,4,33,0.5,3.9070,M,7.095,M,0.6,0004*4A
$GPGGA,084625.70,3015.9200900,N,12007.1358850,E,4,33,0.5,3.9057,M,7.095,M,0.7,0004*4B
$GPGGA,084625.80,3015.9200905,N,12007.1358846,E,4,33,0.5,3.9027,M,7.095,M,0.8,0004*4E
$GPGGA,084625.90,3015.9200900,N,12007.1358849,E,4,33,0.5,3.9035,M,7.095,M,0.9,0004*47
$GPGGA,084626.00,3015.9200903,N,12007.1358855,E,4,33,0.5,3.9058,M,7.095,M,1.0,0004*40
$GPGGA,084626.10,3015.9200899,N,12007.1358847,E,4,33,0.5,3.9078,M,7.095,M,0.1,0004*42
$GPGGA,084626.20,3015.9200901,N,12007.1358840,E,4,33,0.5,3.9079,M,7.095,M,0.2,0004*44
$GPGGA,084626.30,3015.9200905,N,12007.1358838,E,4,33,0.5,3.9026,M,7.095,M,0.3,0004*45
$GPGGA,084626.40,3015.9200900,N,12007.1358841,E,4,33,0.5,3.9065,M,7.095,M,0.4,0004*49
$GPGGA,084626.50,3015.9200901,N,12007.1358842,E,4,33,0.5,3.9046,M,7.095,M,0.5,0004*4A
$GPGGA,084626.60,3015.9200899,N,12007.1358841,E,4,33,0.5,3.9044,M,7.095,M,0.6,0004*4B
$GPGGA,084626.70,3015.9200900,N,12007.1358834,E,4,33,0.5,3.9039,M,7.095,M,0.7,0004*42
$GPGGA,084626.80,3015.9200896,N,12007.1358839,E,4,33,0.5,3.9026,M,7.095,M,0.8,0004*4F
$GPGGA,084626.90,3015.9200898,N,12007.1358840,E,4,33,0.5,3.9034,M,7.095,M,0.9,0004*4C
$GPGGA,084627.00,3015.9200899,N,12007.1358843,E,4,33,0.5,3.9033,M,7.095,M,1.0,0004*49
$GPGGA,084627.10,3015.9200896,N,12007.1358832,E,4,33,0.5,3.9030,M,7.095,M,0.1,0004*42
$GPGGA,084627.20,3015.9200901,N,12007.1358837,E,4,33,0.5,3.9043,M,7.095,M,0.2,0004*4C
$GPGGA,084627.30,3015.9200899,N,12007.1358825,E,4,33,0.5,3.9000,M,7.095,M,0.3,0004*48
$GPGGA,084627.40,3015.9200901,N,12007.1358831,E,4,33,0.5,3.9035,M,7.095,M,0.4,0004*4B
$GPGGA,084627.50,3015.9200904,N,12007.1358833,E,4,33,0.5,3.9039,M,7.095,M,0.5,0004*40
$GPGGA,084627.60,3015.9200906,N,12007.1358843,E,4,33,0.5,3.9045,M,7.095,M,0.6,0004*4E
$GPGGA,084627.70,3015.9200909,N,12007.1358831,E,4,33,0.5,3.9005,M,7.095,M,0.7,0004*40
$GPGGA,084627.80,3015.9200906,N,12007.1358834,E,4,33,0.5,3.9018,M,7.095,M,0.8,0004*46
$GPGGA,084627.90,3015.9200909,N,12007.1358845,E,4,33,0.5,3.9012,M,7.095,M,0.9,0004*45
$GPGGA,084628.00,3015.9200907,N,12007.1358839,E,4,33,0.5,3.9027,M,7.095,M,1.0,0004*48
$GPGGA,084628.10,3015.9200913,N,12007.1358846,E,4,33,0.5,3.9058,M,7.095,M,0.1,0004*4C
$GPGGA,084628.20,3015.9200909,N,12007.1358850,E,4,33,0.5,3.9090,M,7.095,M,0.2,0004*44
$GPGGA,084628.30,3015.9200911,N,12007.1358851,E,4,33,0.5,3.9079,M,7.095,M,0.3,0004*4B
$GPGGA,084628.40,3015.9200907,N,12007.1358848,E,4,33,0.5,3.9085,M,7.095,M,0.4,0004*47
$GPGGA,084628.50,3015.9200913,N,12007.1358846,E,4,33,0.5,3.9048,M,7.095,M,0.5,0004*4D
$GPGGA,084628.60,3015.9200910,N,12007.1358857,E,4,33,0.5,3.9087,M,7.095,M,0.6,0004*4D
$GPGGA,084628.70,3015.9200916,N,12007.1358858,E,4,33,0.5,3.9084,M,7.095,M,0.7,0004*47
$GPGGA,084628.80,3015.9200916,N,12007.1358848,E,4,33,0.5,3.9050,M,7.095,M,0.8,0004*4F
$GPGGA,084628.90,3015.9200916,N,12007.1358851,E,4,33,0.5,3.9036,M,7.095,M,0.9,0004*47
$GPGGA,084629.00,3015.9200913,N,12007.1358862,E,4,33,0.5,3.9077,M,7.095,M,1.0,0004*47
$GPGGA,084629.10,3015.9200898,N,12007.1358845,E,4,33,0.5,3.9085,M,7.095,M,0.1,0004*4C
$GPGGA,084629.20,3015.9200906,N,12007.1358843,E,4,33,0.5,3.9077,M,7.095,M,0.2,0004*41
$GPGGA,084629.30,3015.9200903,N,12007.1358845,E,4,33,0.5,3.9093,M,7.095,M,0.3,0004*48
$GPGGA,084629.40,3015.9200901,N,12007.1358844,E,4,33,0.5,3.9112,M,7.095,M,0.4,0004*43
$GPGGA,084629.50,3015.9200898,N,12007.1358857,E,4,33,0.5,3.9116,M,7.095,M,0.5,0004*44
$GPGGA,084629.60,3015.9200904,N,12007.1358849,E,4,33,0.5,3.9085,M,7.095,M,0.6,0004*44
$GPGGA,084629.70,3015.9200910,N,12007.1358840,E,4,33,0.5,3.9075,M,7.095,M,0.7,0004*47
$GPGGA,084629.80,3015.9200914,N,12007.1358845,E,4,33,0.5,3.9029,M,7.095,M,0.8,0004*4F
$GPGGA,084629.90,3015.9200903,N,12007.1358851,E,4,33,0.5,3.9031,M,7.095,M,0.9,0004*45
$GPGGA,084630.00,3015.9200910,N,12007.1358865,E,4,33,0.5,3.9044,M,7.095,M,1.0,0004*4B
$GPGGA,084630.10,3015.9200914,N,12007.1358848,E,4,33,0.5,3.9070,M,7.095,M,0.1,0004*46
$GPGGA,084630.20,3015.9200914,N,12007.1358849,E,4,33,0.5,3.9089,M,7.095,M,0.2,0004*41
$GPGGA,084630.30,3015.9200910,N,12007.1358847,E,4,33,0.5,3.9088,M,7.095,M,0.3,0004*4A
$GPGGA,084630.40,3015.9200907,N,12007.1358849,E,4,33,0.5,3.9077,M,7.095,M,0.4,0004*42
$GPGGA,084630.50,3015.9200912,N,12007.1358852,E,4,33,0.5,3.9082,M,7.095,M,0.5,0004*46
$GPGGA,084630.60,3015.9200909,N,12007.1358849,E,4,33,0.5,3.9071,M,7.095,M,0.6,0004*4A
$GPGGA,084630.70,3015.9200906,N,12007.1358849,E,4,33,0.5,3.9064,M,7.095,M,0.7,0004*41
$GPGGA,084630.80,3015.9200912,N,12007.1358855,E,4,33,0.5,3.9059,M,7.095,M,0.8,0004*47
$GPGGA,084630.90,3015.9200905,N,12007.1358848,E,4,32,0.5,3.9055,M,7.095,M,0.9,0004*40
$GPGGA,084631.00,3015.9200905,N,12007.1358847,E,4,32,0.5,3.9028,M,7.095,M,1.0,0004*45
$GPGGA,084631.10,3015.9200908,N,12007.1358855,E,4,32,0.5,3.9132,M,7.095,M,0.1,0004*40
$GPGGA,084631.20,3015.9200909,N,12007.1358850,E,4,32,0.5,3.9091,M,7.095,M,0.2,0004*4C
$GPGGA,084631.30,3015.9200904,N,12007.1358862,E,4,32,0.5,3.9144,M,7.095,M,0.3,0004*49
$GPGGA,084631.40,3015.9200906,N,12007.1358852,E,4,32,0.5,3.9104,M,7.095,M,0.4,0004*4C
$GPGGA,084631.50,3015.9200905,N,12007.1358854,E,4,32,0.5,3.9096,M,7.095,M,0.5,0004*43
$GPGGA,084631.60,3015.9200907,N,12007.1358856,E,4,32,0.5,3.9125,M,7.095,M,0.6,0004*4A
$GPGGA,084631.70,3015.9200910,N,12007.1358862,E,4,32,0.5,3.9127,M,7.095,M,0.7,0004*49
$GPGGA,084631.80,3015.9200906,N,12007.1358847,E,4,32,0.5,3.9121,M,7.095,M,0.8,0004*4F
$GPGGA,084631.90,3015.9200906,N,12007.1358853,E,4,32,0.5,3.9122,M,7.095,M,0.9,0004*49
$GPGGA,084632.00,3015.9200913,N,12007.1358856,E,4,32,0.5,3.9130,M,7.095,M,1.0,0004*49
$GPGGA,084632.10,3015.9200912,N,12007.1358851,E,4,32,0.5,3.9102,M,7.095,M,0.1,0004*4F
$GPGGA,084632.20,3015.9200909,N,12007.1358844,E,4,32,0.5,3.9100,M,7.095,M,0.2,0004*43
$GPGGA,084632.30,3015.9200910,N,12007.1358850,E,4,32,0.5,3.9096,M,7.095,M,0.3,0004*40
$GPGGA,084632.40,3015.9200906,N,12007.1358846,E,4,32,0.5,3.9109,M,7.095,M,0.4,0004*47
$GPGGA,084632.50,3015.9200908,N,12007.1358840,E,4,32,0.5,3.9064,M,7.095,M,0.5,0004*45
$GPGGA,084632.60,3015.9200909,N,12007.1358850,E,4,32,0.5,3.9095,M,7.095,M,0.6,0004*4B
$GPGGA,084632.70,3015.9200910,N,12007.1358848,E,4,32,0.5,3.9088,M,7.095,M,0.7,0004*46
$GPGGA,084632.80,3015.9200910,N,12007.1358843,E,4,32,0.5,3.9042,M,7.095,M,0.8,0004*4B
$GPGGA,084632.90,3015.9200916,N,12007.1358844,E,4,32,0.5,3.9067,M,7.095,M,0.9,0004*4D
$GPGGA,084633.00,3015.9200911,N,12007.1358842,E,4,32,0.5,3.9055,M,7.095,M,1.0,0004*4D
$GPGGA,084633.10,3015.9200906,N,12007.1358853,E,4,32,0.5,3.9092,M,7.095,M,0.1,0004*41
$GPGGA,084633.20,3015.9200904,N,12007.1358846,E,4,32,0.5,3.9089,M,7.095,M,0.2,0004*4D
$GPGGA,084633.30,3015.9200900,N,12007.1358847,E,4,32,0.5,3.9102,M,7.095,M,0.3,0004*4A
$GPGGA,084633.40,3015.9200902,N,12007.1358845,E,4,32,0.5,3.9087,M,7.095,M,0.4,0004*46
$GPGGA,084633.50,3015.9200902,N,12007.1358858,E,4,32,0.5,3.9092,M,7.095,M,0.5,0004*4E
$GPGGA,084633.60,3015.9200899,N,12007.1358851,E,4,32,0.5,3.9106,M,7.095,M,0.6,0004*48
$GPGGA,084633.70,3015.9200908,N,12007.1358854,E,4,32,0.5,3.9077,M,7.095,M,0.7,0004*43
$GPGGA,084633.80,3015.9200903,N,12007.1358854,E,4,32,0.5,3.9097,M,7.095,M,0.8,0004*46
$GPGGA,084633.90,3015.9200907,N,12007.1358853,E,4,32,0.5,3.9095,M,7.095,M,0.9,0004*47
$GPGGA,084634.00,3015.9200905,N,12007.1358851,E,4,32,0.5,3.9091,M,7.095,M,1.0,0004*45
$GPGGA,084634.10,3015.9200908,N,12007.1358845,E,4,32,0.5,3.9083,M,7.095,M,0.1,0004*4F
$GPGGA,084634.20,3015.9200904,N,12007.1358851,E,4,32,0.5,3.9072,M,7.095,M,0.2,0004*48
$GPGGA,084634.30,3015.9200901,N,12007.1358849,E,4,32,0.5,3.9066,M,7.095,M,0.3,0004*41
$GPGGA,084634.40,3015.9200901,N,12007.1358853,E,4,32,0.5,3.9074,M,7.095,M,0.4,0004*49
$GPGGA,084634.50,3015.9200900,N,12007.1358852,E,4,32,0.5,3.9029,M,7.095,M,0.5,0004*41
$GPGGA,084634.60,3015.9200896,N,12007.1358856,E,4,32,0.5,3.9037,M,7.095,M,0.6,0004*44
$GPGGA,084634.70,3015.9200897,N,12007.1358850,E,4,32,0.5,3.9024,M,7.095,M,0.7,0004*41
$GPGGA,084634.80,3015.9200900,N,12007.1358862,E,4,32,0.5,3.9053,M,7.095,M,0.8,0004*4F
$GPGGA,084634.90,3015.9200898,N,12007.1358862,E,4,32,0.5,3.9041,M,7.095,M,0.9,0004*4C
$GPGGA,084635.00,3015.9200897,N,12007.1358861,E,4,32,0.5,3.9058,M,7.095,M,1.0,0004*48
$GPGGA,084635.10,3015.9200902,N,12007.1358855,E,4,32,0.5,3.9036,M,7.095,M,0.1,0004*4B
$GPGGA,084635.20,3015.9200894,N,12007.1358848,E,4,32,0.5,3.9038,M,7.095,M,0.2,0004*47
$GPGGA,084635.30,3015.9200901,N,12007.1358850,E,4,32,0.5,3.9025,M,7.095,M,0.3,0004*4F
$GPGGA,084635.40,3015.9200901,N,12007.1358848,E,4,32,0.5,3.9026,M,7.095,M,0.4,0004*45
$GPGGA,084635.50,3015.9200899,N,12007.1358855,E,4,32,0.5,3.9026,M,7.095,M,0.5,0004*49
$GPGGA,084635.60,3015.9200900,N,12007.1358843,E,4,32,0.5,3.9040,M,7.095,M,0.6,0004*4F
$GPGGA,084635.70,3015.9200899,N,12007.1358844,E,4,32,0.5,3.9029,M,7.095,M,0.7,0004*46
$GPGGA,084635.80,3015.9200901,N,12007.1358845,E,4,32,0.5,3.9020,M,7.095,M,0.8,0004*4E
$GPGGA,084635.90,3015.9200902,N,12007.1358847,E,4,32,0.5,3.9047,M,7.095,M,0.9,0004*4E
$GPGGA,084636.00,3015.9200899,N,12007.1358849,E,4,32,0.5,3.9021,M,7.095,M,1.0,0004*41
$GPGGA,084636.10,3015.9200902,N,12007.1358846,E,4,32,0.5,3.9012,M,7.095,M,0.1,0004*4C
$GPGGA,084636.20,3015.9200903,N,12007.1358852,E,4,32,0.5,3.9021,M,7.095,M,0.2,0004*48
$GPGGA,084636.30,3015.9200907,N,12007.1358845,E,4,32,0.5,3.9028,M,7.095,M,0.3,0004*43
$GPGGA,084636.40,3015.9200903,N,12007.1358847,E,4,32,0.5,3.9013,M,7.095,M,0.4,0004*4D
$GPGGA,084636.50,3015.9200906,N,12007.1358843,E,4,32,0.5,3.9024,M,7.095,M,0.5,0004*48
$GPGGA,084636.60,3015.9200905,N,12007.1358844,E,4,32,0.5,3.9006,M,7.095,M,0.6,0004*4C
$GPGGA,084636.70,3015.9200907,N,12007.1358837,E,4,32,0.5,3.8990,M,7.095,M,0.7,0004*4D
$GPGGA,084636.80,3015.9200904,N,12007.1358842,E,4,32,0.5,3.9018,M,7.095,M,0.8,0004*44
$GPGGA,084636.90,3015.9200904,N,12007.1358845,E,4,32,0.5,3.9003,M,7.095,M,0.9,0004*49
$GPGGA,084637.00,3015.9200904,N,12007.1358844,E,4,32,0.5,3.8992,M,7.095,M,1.0,0004*48
$GPGGA,084637.10,3015.9200902,N,12007.1358862,E,4,32,0.5,3.9059,M,7.095,M,0.1,0004*44
$GPGGA,084637.20,3015.9200900,N,12007.1358857,E,4,32,0.5,3.9058,M,7.095,M,0.2,0004*41
$GPGGA,084637.30,3015.9200901,N,12007.1358853,E,4,32,0.5,3.9024,M,7.095,M,0.3,0004*4F
$GPGGA,084637.40,3015.9200901,N,12007.1358858,E,4,32,0.5,3.9038,M,7.095,M,0.4,0004*49
$GPGGA,084637.50,3015.9200901,N,12007.1358862,E,4,32,0.5,3.9038,M,7.095,M,0.5,0004*40
$GPGGA,084637.60,3015.9200899,N,12007.1358858,E,4,32,0.5,3.9032,M,7.095,M,0.6,0004*43
$GPGGA,084637.70,3015.9200900,N,12007.1358861,E,4,32,0.5,3.9016,M,7.095,M,0.7,0004*4E
$GPGGA,084637.80,3015.9200904,N,12007.1358856,E,4,32,0.5,3.8999,M,7.095,M,0.8,0004*41
$GPGGA,084637.90,3015.9200899,N,12007.1358861,E,4,32,0.5,3.9018,M,7.095,M,0.9,0004*41
$GPGGA,084638.00,3015.9200903,N,12007.1358860,E,4,32,0.5,3.9014,M,7.095,M,1.0,0004*40
$GPGGA,084638.10,3015.9200897,N,12007.1358862,E,4,32,0.5,3.9061,M,7.095,M,0.1,0004*4D
$GPGGA,084638.20,3015.9200899,N,12007.1358864,E,4,32,0.5,3.9024,M,7.095,M,0.2,0004*44
$GPGGA,084638.30,3015.9200899,N,12007.1358848,E,4,32,0.5,3.9014,M,7.095,M,0.3,0004*49
$GPGGA,084638.40,3015.9200900,N,12007.1358860,E,4,32,0.5,3.9031,M,7.095,M,0.4,0004*45
$GPGGA,084638.50,3015.9200902,N,12007.1358858,E,4,32,0.5,3.9021,M,7.095,M,0.5,0004*4D
$GPGGA,084638.60,3015.9200902,N,12007.1358868,E,4,32,0.5,3.9043,M,7.095,M,0.6,0004*4A
$GPGGA,084638.70,3015.9200900,N,12007.1358866,E,4,32,0.5,3.9067,M,7.095,M,0.7,0004*40
$GPGGA,084638.80,3015.9200900,N,12007.1358871,E,4,32,0.5,3.9048,M,7.095,M,0.8,0004*4B
$GPGGA,084638.90,3015.9200905,N,12007.1358860,E,4,32,0.5,3.9037,M,7.095,M,0.9,0004*46
$GPGGA,084639.00,3015.9200905,N,12007.1358867,E,4,32,0.5,3.9047,M,7.095,M,1.0,0004*46
$GPGGA,084639.10,3015.9200902,N,12007.1358865,E,4,32,0.5,3.9056,M,7.095,M,0.1,0004*42
$GPGGA,084639.20,3015.9200899,N,12007.1358862,E,4,32,0.5,3.9070,M,7.095,M,0.2,0004*42
$GPGGA,084639.30,3015.9200900,N,12007.1358861,E,4,32,0.5,3.9030,M,7.095,M,0.3,0004*44
$GPGGA,084639.40,3015.9200899,N,12007.1358862,E,4,32,0.5,3.9048,M,7.095,M,0.4,0004*49
$GPGGA,084639.50,3015.9200901,N,12007.1358856,E,4,32,0.5,3.9049,M,7.095,M,0.5,0004*4F
$GPGGA,084639.60,3015.9200902,N,12007.1358858,E,4,32,0.5,3.9027,M,7.095,M,0.6,0004*4A
$GPGGA,084639.70,3015.9200901,N,12007.1358864,E,4,32,0.5,3.9036,M,7.095,M,0.7,0004*46
$GPGGA,084639.80,3015.9200901,N,12007.1358852,E,4,32,0.5,3.9020,M,7.095,M,0.8,0004*44
$GPGGA,084639.90,3015.9200901,N,12007.1358855,E,4,32,0.5,3.9026,M,7.095,M,0.9,0004*45
$GPGGA,084640.00,3015.9200899,N,12007.1358856,E,4,32,0.5,3.9047,M,7.095,M,1.0,0004*4E
$GPGGA,084640.10,3015.9200895,N,12007.1358851,E,4,32,0.5,3.9054,M,7.095,M,0.1,0004*46
$GPGGA,084640.20,3015.9200897,N,12007.1358857,E,4,32,0.5,3.9060,M,7.095,M,0.2,0004*45
$GPGGA,084640.30,3015.9200897,N,12007.1358862,E,4,32,0.5,3.9046,M,7.095,M,0.3,0004*47
$GPGGA,084640.40,3015.9200895,N,12007.1358863,E,4,32,0.5,3.9043,M,7.095,M,0.4,0004*41
$GPGGA,084640.50,3015.9200897,N,12007.1358867,E,4,32,0.5,3.9056,M,7.095,M,0.5,0004*43
$GPGGA,084640.60,3015.9200896,N,12007.1358862,E,4,32,0.5,3.9048,M,7.095,M,0.6,0004*48
$GPGGA,084640.70,3015.9200896,N,12007.1358869,E,4,32,0.5,3.9049,M,7.095,M,0.7,0004*42
$GPGGA,084640.80,3015.9200899,N,12007.1358869,E,4,32,0.5,3.9046,M,7.095,M,0.8,0004*42
$GPGGA,084640.90,3015.9200899,N,12007.1358865,E,4,32,0.5,3.9019,M,7.095,M,0.9,0004*44
$GPGGA,084641.00,3015.9200899,N,12007.1358871,E,4,32,0.5,3.9032,M,7.095,M,1.0,0004*48
$GPGGA,084641.10,3015.9200901,N,12007.1358862,E,4,32,0.5,3.9036,M,7.095,M,0.1,0004*4F
$GPGGA,084641.20,3015.9200904,N,12007.1358860,E,4,32,0.5,3.9028,M,7.095,M,0.2,0004*47
$GPGGA,084641.30,3015.9200902,N,12007.1358854,E,4,32,0.5,3.8995,M,7.095,M,0.3,0004*48
$GPGGA,084641.40,3015.9200904,N,12007.1358856,E,4,32,0.5,3.9014,M,7.095,M,0.4,0004*4D
$GPGGA,084641.50,3015.9200900,N,12007.1358850,E,4,32,0.5,3.9026,M,7.095,M,0.5,0004*4E
$GPGGA,084641.60,3015.9200906,N,12007.1358847,E,4,32,0.5,3.9018,M,7.095,M,0.6,0004*43
$GPGGA,084641.70,3015.9200905,N,12007.1358853,E,4,32,0.5,3.9002,M,7.095,M,0.7,0004*4E
$GPGGA,084641.80,3015.9200901,N,12007.1358844,E,4,32,0.5,3.8988,M,7.095,M,0.8,0004*46
$GPGGA,084641.90,3015.9200904,N,12007.1358854,E,4,32,0.5,3.9013,M,7.095,M,0.9,0004*48
$GPGGA,084642.00,3015.9200901,N,12007.1358850,E,4,32,0.5,3.9010,M,7.095,M,1.0,0004*48
$GPGGA,084642.10,3015.9200893,N,12007.1358852,E,4,32,0.5,3.9023,M,7.095,M,0.1,0004*41
$GPGGA,084642.20,3015.9200899,N,12007.1358855,E,4,32,0.5,3.9007,M,7.095,M,0.2,0004*4A
$GPGGA,084642.30,3015.9200895,N,12007.1358853,E,4,32,0.5,3.9005,M,7.095,M,0.3,0004*42
$GPGGA,084642.40,3015.9200900,N,12007.1358855,E,4,32,0.5,3.9003,M,7.095,M,0.4,0004*4F
$GPGGA,084642.50,3015.9200898,N,12007.1358851,E,4,32,0.5,3.8999,M,7.095,M,0.5,0004*40
$GPGGA,084642.60,3015.9200897,N,12007.1358859,E,4,32,0.5,3.8991,M,7.095,M,0.6,0004*4F
$GPGGA,084642.70,3015.9200897,N,12007.1358850,E,4,32,0.5,3.8981,M,7.095,M,0.7,0004*47
$GPGGA,084642.80,3015.9200903,N,12007.1358863,E,4,32,0.5,3.8985,M,7.095,M,0.8,0004*4F
$GPGGA,084642.90,3015.9200899,N,12007.1358857,E,4,32,0.5,3.8964,M,7.095,M,0.9,0004*45
$GPGGA,084643.00,3015.9200897,N,12007.1358853,E,4,32,0.5,3.8978,M,7.095,M,1.0,0004*42
$GPGGA,084643.10,3015.9200906,N,12007.1358857,E,4,32,0.5,3.9000,M,7.095,M,0.1,0004*49
$GPGGA,084643.20,3015.9200908,N,12007.1358862,E,4,32,0.5,3.8996,M,7.095,M,0.2,0004*46
$GPGGA,084643.30,3015.9200905,N,12007.1358862,E,4,32,0.5,3.9005,M,7.095,M,0.3,0004*49
$GPGGA,084643.40,3015.9200908,N,12007.1358859,E,4,32,0.5,3.8997,M,7.095,M,0.4,0004*4F
$GPGGA,084643.50,3015.9200906,N,12007.1358856,E,4,32,0.5,3.8993,M,7.095,M,0.5,0004*4A
$GPGGA,084643.60,3015.9200902,N,12007.1358858,E,4,32,0.5,3.9009,M,7.095,M,0.6,0004*4B
$GPGGA,084643.70,3015.9200905,N,12007.1358859,E,4,32,0.5,3.9019,M,7.095,M,0.7,0004*4C
$GPGGA,084643.80,3015.9200905,N,12007.1358862,E,4,32,0.5,3.9014,M,7.095,M,0.8,0004*49
$GPGGA,084643.90,3015.9200903,N,12007.1358861,E,4,32,0.5,3.9010,M,7.095,M,0.9,0004*48
$GPGGA,084644.00,3015.9200907,N,12007.1358855,E,4,32,0.5,3.8989,M,7.095,M,1.0,0004*45
$GPGGA,084644.10,3015.9200896,N,12007.1358871,E,4,32,0.5,3.9101,M,7.095,M,0.1,0004*42
$GPGGA,084644.20,3015.9200896,N,12007.1358868,E,4,32,0.5,3.9079,M,7.095,M,0.2,0004*44
$GPGGA,084644.30,3015.9200896,N,12007.1358868,E,4,32,0.5,3.9067,M,7.095,M,0.3,0004*4B
$GPGGA,084644.40,3015.9200893,N,12007.1358865,E,4,32,0.5,3.9077,M,7.095,M,0.4,0004*42
$GPGGA,084644.50,3015.9200895,N,12007.1358871,E,4,32,0.5,3.9086,M,7.095,M,0.5,0004*4F
$GPGGA,084644.60,3015.9200901,N,12007.1358879,E,4,32,0.5,3.9092,M,7.095,M,0.6,0004*4E
$GPGGA,084644.70,3015.9200894,N,12007.1358867,E,4,32,0.5,3.9061,M,7.095,M,0.7,0004*40
$GPGGA,084644.80,3015.9200892,N,12007.1358870,E,4,32,0.5,3.9079,M,7.095,M,0.8,0004*49
$GPGGA,084644.90,3015.9200894,N,12007.1358882,E,4,32,0.5,3.9085,M,7.095,M,0.9,0004*41
$GPGGA,084645.00,3015.9200890,N,12007.1358873,E,4,32,0.5,3.9072,M,7.095,M,1.0,0004*43
$GPGGA,084645.10,3015.9200899,N,12007.1358853,E,4,32,0.5,3.9027,M,7.095,M,0.1,0004*49
$GPGGA,084645.20,3015.9200895,N,12007.1358855,E,4,32,0.5,3.9049,M,7.095,M,0.2,0004*4B
$GPGGA,084645.30,3015.9200898,N,12007.1358849,E,4,32,0.5,3.9011,M,7.095,M,0.3,0004*46
$GPGGA,084645.40,3015.9200899,N,12007.1358856,E,4,32,0.5,3.9035,M,7.095,M,0.4,0004*4F
$GPGGA,084645.50,3015.9200899,N,12007.1358861,E,4,32,0.5,3.9014,M,7.095,M,0.5,0004*48
$GPGGA,084645.60,3015.9200901,N,12007.1358850,E,4,32,0.5,3.9018,M,7.095,M,0.6,0004*46
$GPGGA,084645.70,3015.9200900,N,12007.1358854,E,4,32,0.5,3.9023,M,7.095,M,0.7,0004*4B
$GPGGA,084645.80,3015.9200902,N,12007.1358860,E,4,32,0.5,3.9033,M,7.095,M,0.8,0004*4F
$GPGGA,084645.90,3015.9200902,N,12007.1358849,E,4,32,0.5,3.8993,M,7.095,M,0.9,0004*46
$GPGGA,084646.00,3015.9200903,N,12007.1358868,E,4,32,0.5,3.9026,M,7.095,M,1.0,0004*40
$GPGGA,084646.10,3015.9200901,N,12007.1358848,E,4,32,0.5,3.9002,M,7.095,M,0.1,0004*47
$GPGGA,084646.20,3015.9200895,N,12007.1358840,E,4,32,0.5,3.8998,M,7.095,M,0.2,0004*48
$GPGGA,084646.30,3015.9200896,N,12007.1358856,E,4,32,0.5,3.9044,M,7.095,M,0.3,0004*45
$GPGGA,084646.40,3015.9200898,N,12007.1358844,E,4,32,0.5,3.8983,M,7.095,M,0.4,0004*4B
$GPGGA,084646.50,3015.9200905,N,12007.1358853,E,4,32,0.5,3.8974,M,7.095,M,0.5,0004*40
$GPGGA,084646.60,3015.9200901,N,12007.1358851,E,4,32,0.5,3.8987,M,7.095,M,0.6,0004*4A
$GPGGA,084646.70,3015.9200898,N,12007.1358848,E,4,32,0.5,3.9014,M,7.095,M,0.7,0004*41
$GPGGA,084646.80,3015.9200897,N,12007.1358853,E,4,32,0.5,3.9006,M,7.095,M,0.8,0004*47
$GPGGA,084646.90,3015.9200897,N,12007.1358854,E,4,32,0.5,3.9013,M,7.095,M,0.9,0004*44
$GPGGA,084647.00,3015.9200896,N,12007.1358849,E,4,32,0.5,3.8990,M,7.095,M,1.0,0004*4A
$GPGGA,084647.10,3015.9200899,N,12007.1358845,E,4,32,0.5,3.9021,M,7.095,M,0.1,0004*4A
$GPGGA,084647.20,3015.9200900,N,12007.1358832,E,4,32,0.5,3.8982,M,7.095,M,0.2,0004*4A
$GPGGA,084647.30,3015.9200906,N,12007.1358849,E,4,32,0.5,3.8953,M,7.095,M,0.3,0004*4C
$GPGGA,084647.40,3015.9200910,N,12007.1358838,E,4,32,0.5,3.8915,M,7.095,M,0.4,0004*4F
$GPGGA,084647.50,3015.9200906,N,12007.1358834,E,4,32,0.5,3.8953,M,7.095,M,0.5,0004*46
$GPGGA,084647.60,3015.9200901,N,12007.1358836,E,4,32,0.5,3.8980,M,7.095,M,0.6,0004*4D
$GPGGA,084647.70,3015.9200907,N,12007.1358845,E,4,32,0.5,3.8982,M,7.095,M,0.7,0004*4D
$GPGGA,084647.80,3015.9200903,N,12007.1358838,E,4,32,0.5,3.8985,M,7.095,M,0.8,0004*44
$GPGGA,084647.90,3015.9200901,N,12007.1358844,E,4,32,0.5,3.8986,M,7.095,M,0.9,0004*4E
$GPGGA,084648.00,3015.9200901,N,12007.1358835,E,4,32,0.5,3.8974,M,7.095,M,1.0,0004*4B
$GPGGA,084648.10,3015.9200903,N,12007.1358850,E,4,32,0.5,3.8934,M,7.095,M,0.1,0004*4F
$GPGGA,084648.20,3015.9200905,N,12007.1358844,E,4,32,0.5,3.8960,M,7.095,M,0.2,0004*4D
$GPGGA,084648.30,3015.9200902,N,12007.1358855,E,4,32,0.5,3.8976,M,7.095,M,0.3,0004*4D
$GPGGA,084648.40,3015.9200899,N,12007.1358844,E,4,32,0.5,3.8955,M,7.095,M,0.4,0004*4F
$GPGGA,084648.50,3015.9200905,N,12007.1358849,E,4,32,0.5,3.8948,M,7.095,M,0.5,0004*4A
$GPGGA,084648.60,3015.9200906,N,12007.1358853,E,4,32,0.5,3.8890,M,7.095,M,0.6,0004*46
$GPGGA,084648.70,3015.9200902,N,12007.1358843,E,4,32,0.5,3.8914,M,7.095,M,0.7,0004*4E
$GPGGA,084648.80,3015.9200906,N,12007.1358845,E,4,32,0.5,3.8976,M,7.095,M,0.8,0004*48
$GPGGA,084648.90,3015.9200889,N,12007.1358843,E,4,32,0.5,3.8987,M,7.095,M,0.9,0004*46
$GPGGA,084649.00,3015.9200898,N,12007.1358845,E,4,32,0.5,3.8990,M,7.095,M,1.0,0004*46
$GPGGA,084649.10,3015.9200894,N,12007.1358835,E,4,32,0.5,3.8988,M,7.095,M,0.1,0004*45
$GPGGA,084649.20,3015.9200892,N,12007.1358845,E,4,32,0.5,3.8996,M,7.095,M,0.2,0004*4B
$GPGGA,084649.30,3015.9200888,N,12007.1358840,E,4,32,0.5,3.8999,M,7.095,M,0.3,0004*4A
$GPGGA,084649.40,3015.9200884,N,12007.1358835,E,4,32,0.5,3.9017,M,7.095,M,0.4,0004*4A
$GPGGA,084649.50,3015.9200890,N,12007.1358827,E,4,32,0.5,3.9054,M,7.095,M,0.5,0004*4B
$GPGGA,084649.60,3015.9200890,N,12007.1358828,E,4,32,0.5,3.9036,M,7.095,M,0.6,0004*40
$GPGGA,084649.70,3015.9200889,N,12007.1358829,E,4,32,0.5,3.9034,M,7.095,M,0.7,0004*4B
$GPGGA,084649.80,3015.9200888,N,12007.1358824,E,4,32,0.5,3.9022,M,7.095,M,0.8,0004*40
$GPGGA,084649.90,3015.9200884,N,12007.1358832,E,4,32,0.5,3.9046,M,7.095,M,0.9,0004*49
$GPGGA,084650.00,3015.9200882,N,12007.1358829,E,4,32,0.5,3.9047,M,7.095,M,1.0,0004*4D
$GPGGA,084650.10,3015.9200904,N,12007.1358842,E,4,32,0.5,3.9013,M,7.095,M,0.1,0004*4F
$GPGGA,084650.20,3015.9200898,N,12007.1358849,E,4,32,0.5,3.9032,M,7.095,M,0.2,0004*43
$GPGGA,084650.30,3015.9200904,N,12007.1358848,E,4,32,0.5,3.9017,M,7.095,M,0.3,0004*41
$GPGGA,084650.40,3015.9200907,N,12007.1358858,E,4,32,0.5,3.9002,M,7.095,M,0.4,0004*47
$GPGGA,084650.50,3015.9200902,N,12007.1358850,E,4,32,0.5,3.8986,M,7.095,M,0.5,0004*4E
$GPGGA,084650.60,3015.9200910,N,12007.1358851,E,4,32,0.5,3.8962,M,7.095,M,0.6,0004*46
$GPGGA,084650.70,3015.9200905,N,12007.1358858,E,4,32,0.5,3.8974,M,7.095,M,0.7,0004*4C
$GPGGA,084650.80,3015.9200907,N,12007.1358860,E,4,32,0.5,3.8983,M,7.095,M,0.8,0004*4D
$GPGGA,084650.90,3015.9200913,N,12007.1358853,E,4,32,0.5,3.8911,M,7.095,M,0.9,0004*43
$GPGGA,084651.00,3015.9200914,N,12007.1358863,E,4,32,0.5,3.8934,M,7.095,M,1.0,0004*40
$GPGGA,084651.10,3015.9200919,N,12007.1358847,E,4,32,0.5,3.8876,M,7.095,M,0.1,0004*4D
$GPGGA,084651.20,3015.9200908,N,12007.1358843,E,4,32,0.5,3.8922,M,7.095,M,0.2,0004*49
$GPGGA,084651.30,3015.9200912,N,12007.1358848,E,4,32,0.5,3.8921,M,7.095,M,0.3,0004*4A
$GPGGA,084651.40,3015.9200907,N,12007.1358840,E,4,32,0.5,3.8952,M,7.095,M,0.4,0004*42
$GPGGA,084651.50,3015.9200907,N,12007.1358848,E,4,32,0.5,3.8941,M,7.095,M,0.5,0004*48
$GPGGA,084651.60,3015.9200905,N,12007.1358848,E,4,32,0.5,3.8972,M,7.095,M,0.6,0004*4A
$GPGGA,084651.70,3015.9200895,N,12007.1358837,E,4,32,0.5,3.8982,M,7.095,M,0.7,0004*45
$GPGGA,084651.80,3015.9200900,N,12007.1358843,E,4,32,0.5,3.8970,M,7.095,M,0.8,0004*46
$GPGGA,084651.90,3015.9200902,N,12007.1358833,E,4,32,0.5,3.8951,M,7.095,M,0.9,0004*40
$GPGGA,084652.00,3015.9200900,N,12007.1358843,E,4,32,0.5,3.9005,M,7.095,M,1.0,0004*4E
$GPGGA,084652.10,3015.9200911,N,12007.1358859,E,4,32,0.5,3.8965,M,7.095,M,0.1,0004*4A
$GPGGA,084652.20,3015.9200909,N,12007.1358859,E,4,32,0.5,3.8970,M,7.095,M,0.2,0004*47
$GPGGA,084652.30,3015.9200912,N,12007.1358860,E,4,32,0.5,3.8924,M,7.095,M,0.3,0004*46
$GPGGA,084652.40,3015.9200908,N,12007.1358860,E,4,32,0.5,3.8920,M,7.095,M,0.4,0004*49
$GPGGA,084652.50,3015.9200910,N,12007.1358858,E,4,32,0.5,3.8900,M,7.095,M,0.5,0004*49
$GPGGA,084652.60,3015.9200909,N,12007.1358857,E,4,32,0.5,3.8915,M,7.095,M,0.6,0004*4A
$GPGGA,084652.70,3015.9200910,N,12007.1358865,E,4,32,0.5,3.8958,M,7.095,M,0.7,0004*4A
$GPGGA,084652.80,3015.9200907,N,12007.1358865,E,4,32,0.5,3.8926,M,7.095,M,0.8,0004*45
$GPGGA,084652.90,3015.9200912,N,12007.1358873,E,4,32,0.5,3.8940,M,7.095,M,0.9,0004*46
$GPGGA,084653.00,3015.9200905,N,12007.1358868,E,4,32,0.5,3.8935,M,7.095,M,1.0,0004*48
$GPGGA,084653.10,3015.9200910,N,12007.1358844,E,4,32,0.5,3.8970,M,7.095,M,0.1,0004*42
$GPGGA,084653.20,3015.9200907,N,12007.1358848,E,4,32,0.5,3.8980,M,7.095,M,0.2,0004*47
$GPGGA,084653.30,3015.9200910,N,12007.1358858,E,4,32,0.5,3.8994,M,7.095,M,0.3,0004*45
$GPGGA,084653.40,3015.9200911,N,12007.1358851,E,4,32,0.5,3.8986,M,7.095,M,0.4,0004*4E
$GPGGA,084653.50,3015.9200908,N,12007.1358854,E,4,32,0.5,3.8976,M,7.095,M,0.5,0004*4C
$GPGGA,084653.60,3015.9200907,N,12007.1358848,E,4,32,0.5,3.9009,M,7.095,M,0.6,0004*4E
$GPGGA,084653.70,3015.9200900,N,12007.1358846,E,4,32,0.5,3.8990,M,7.095,M,0.7,0004*4F
$GPGGA,084653.80,3015.9200903,N,12007.1358849,E,4,32,0.5,3.8963,M,7.095,M,0.8,0004*4F
$GPGGA,084653.90,3015.9200898,N,12007.1358838,E,4,32,0.5,3.9008,M,7.095,M,0.9,0004*4F
$GPGGA,084654.00,3015.9200900,N,12007.1358836,E,4,32,0.5,3.8969,M,7.095,M,1.0,0004*48
$GPGGA,084654.10,3015.9200890,N,12007.1358851,E,4,32,0.5,3.9077,M,7.095,M,0.1,0004*47
$GPGGA,084654.20,3015.9200898,N,12007.1358856,E,4,32,0.5,3.9073,M,7.095,M,0.2,0004*4C
$GPGGA,084654.30,3015.9200895,N,12007.1358849,E,4,32,0.5,3.9072,M,7.095,M,0.3,0004*4E
$GPGGA,084654.40,3015.9200900,N,12007.1358843,E,4,32,0.5,3.9042,M,7.095,M,0.4,0004*4A
$GPGGA,084654.50,3015.9200893,N,12007.1358853,E,4,32,0.5,3.9074,M,7.095,M,0.5,0004*45
$GPGGA,084654.60,3015.9200892,N,12007.1358851,E,4,32,0.5,3.9091,M,7.095,M,0.6,0004*4D
$GPGGA,084654.70,3015.9200895,N,12007.1358852,E,4,32,0.5,3.9082,M,7.095,M,0.7,0004*4B
$GPGGA,084654.80,3015.9200897,N,12007.1358853,E,4,32,0.5,3.9075,M,7.095,M,0.8,0004*40
$GPGGA,084654.90,3015.9200894,N,12007.1358857,E,4,32,0.5,3.9088,M,7.095,M,0.9,0004*45
$GPGGA,084655.00,3015.9200897,N,12007.1358856,E,4,32,0.5,3.9116,M,7.095,M,1.0,0004*41
$GPGGA,084655.10,3015.9200919,N,12007.1358852,E,4,32,0.5,3.9008,M,7.095,M,0.1,0004*4D
$GPGGA,084655.20,3015.9200921,N,12007.1358851,E,4,32,0.5,3.9020,M,7.095,M,0.2,0004*4F
$GPGGA,084655.30,3015.9200924,N,12007.1358853,E,4,32,0.5,3.9011,M,7.095,M,0.3,0004*4A
$GPGGA,084655.40,3015.9200918,N,12007.1358850,E,4,32,0.5,3.9011,M,7.095,M,0.4,0004*46
$GPGGA,084655.50,3015.9200923,N,12007.1358848,E,4,32,0.5,3.8967,M,7.095,M,0.5,0004*4E
$GPGGA,084655.60,3015.9200921,N,12007.1358843,E,4,32,0.5,3.9008,M,7.095,M,0.6,0004*46
$GPGGA,084655.70,3015.9200928,N,12007.1358847,E,4,32,0.5,3.9000,M,7.095,M,0.7,0004*43
$GPGGA,084655.80,3015.9200926,N,12007.1358846,E,4,32,0.5,3.9040,M,7.095,M,0.8,0004*48
$GPGGA,084655.90,3015.9200920,N,12007.1358849,E,4,32,0.5,3.9033,M,7.095,M,0.9,0004*45
$GPGGA,084656.00,3015.9200917,N,12007.1358850,E,4,32,0.5,3.9050,M,7.095,M,1.0,0004*4E
$GPGGA,084656.10,3015.9200909,N,12007.1358839,E,4,32,0.5,3.9012,M,7.095,M,0.1,0004*49
$GPGGA,084656.20,3015.9200927,N,12007.1358857,E,4,32,0.5,3.9009,M,7.095,M,0.2,0004*47
$GPGGA,084656.30,3015.9200947,N,12007.1358874,E,4,32,0.5,3.8912,M,7.095,M,0.3,0004*42
$GPGGA,084656.40,3015.9200939,N,12007.1358865,E,4,32,0.5,3.8890,M,7.095,M,0.4,0004*40
$GPGGA,084656.50,3015.9200932,N,12007.1358853,E,4,32,0.5,3.8929,M,7.095,M,0.5,0004*4D
$GPGGA,084656.60,3015.9200934,N,12007.1358854,E,4,32,0.5,3.8966,M,7.095,M,0.6,0004*47
$GPGGA,084656.70,3015.9200938,N,12007.1358857,E,4,32,0.5,3.8919,M,7.095,M,0.7,0004*40
