$GPGGA,085502.20,3015.9201605,N,12007.1358400,E,4,32,0.5,3.7672,M,7.095,M,0.2,0004*40
$GPGGA,085502.30,3015.9201605,N,12007.1358399,E,4,32,0.5,3.7696,M,7.095,M,0.3,0004*4D
$GPGGA,085502.40,3015.9201607,N,12007.1358397,E,4,32,0.5,3.7689,M,7.095,M,0.4,0004*4F
$GPGGA,085502.50,3015.9201603,N,12007.1358389,E,4,32,0.5,3.7649,M,7.095,M,0.5,0004*48
$GPGGA,085502.60,3015.9201607,N,12007.1358401,E,4,32,0.5,3.7682,M,7.095,M,0.6,0004*4C
$GPGGA,085502.70,3015.9201600,N,12007.1358394,E,4,32,0.5,3.7667,M,7.095,M,0.7,0004*4B
$GPGGA,085502.80,3015.9201604,N,12007.1358402,E,4,32,0.5,3.7683,M,7.095,M,0.8,0004*4D
$GPGGA,085502.90,3015.9201604,N,12007.1358394,E,4,32,0.5,3.7699,M,7.095,M,0.9,0004*4E
$GPGGA,085503.00,3015.9201607,N,12007.1358396,E,4,32,0.5,3.7684,M,7.095,M,1.0,0004*43
$GPGGA,085503.10,3015.9201609,N,12007.1358401,E,4,32,0.5,3.7700,M,7.095,M,0.1,0004*48
$GPGGA,085503.20,3015.9201609,N,12007.1358399,E,4,32,0.5,3.7697,M,7.095,M,0.2,0004*41
$GPGGA,085503.30,3015.9201607,N,12007.1358401,E,4,32,0.5,3.7688,M,7.095,M,0.3,0004*47
$GPGGA,085503.40,3015.9201607,N,12007.1358403,E,4,32,0.5,3.7638,M,7.095,M,0.4,0004*4E
$GPGGA,085503.50,3015.9201609,N,12007.1358400,E,4,32,0.5,3.7649,M,7.095,M,0.5,0004*45
$GPGGA,085503.60,3015.9201599,N,12007.1358394,E,4,32,0.5,3.7652,M,7.095,M,0.6,0004*4F
$GPGGA,085503.70,3015.9201608,N,12007.1358395,E,4,32,0.5,3.7646,M,7.095,M,0.7,0004*40
$GPGGA,085503.80,3015.9201604,N,12007.1358390,E,4,32,0.5,3.7625,M,7.095,M,0.8,0004*4C
$GPGGA,085503.90,3015.9201609,N,12007.1358389,E,4,32,0.5,3.7622,M,7.095,M,0.9,0004*4E
$GPGGA,085504.00,3015.9201608,N,12007.1358393,E,4,32,0.5,3.7644,M,7.095,M,1.0,0004*42
$GPGGA,085504.10,3015.9201612,N,12007.1358393,E,4,32,0.5,3.7626,M,7.095,M,0.1,0004*4C
$GPGGA,085504.20,3015.9201609,N,12007.1358390,E,4,32,0.5,3.7658,M,7.095,M,0.2,0004*4C
$GPGGA,085504.30,3015.9201606,N,12007.1358389,E,4,32,0.5,3.7648,M,7.095,M,0.3,0004*4A
$GPGGA,085504.40,3015.9201604,N,12007.1358386,E,4,32,0.5,3.7675,M,7.095,M,0.4,0004*49
$GPGGA,085504.50,3015.9201606,N,12007.1358391,E,4,32,0.5,3.7593,M,7.095,M,0.5,0004*46
$GPGGA,085504.60,3015.9201608,N,12007.1358402,E,4,32,0.5,3.7650,M,7.095,M,0.6,0004*49
$GPGGA,085504.70,3015.9201609,N,12007.1358393,E,4,32,0.5,3.7672,M,7.095,M,0.7,0004*47
$GPGGA,085504.80,3015.9201602,N,12007.1358395,E,4,32,0.5,3.7642,M,7.095,M,0.8,0004*49
$GPGGA,085504.90,3015.9201603,N,12007.1358389,E,4,32,0.5,3.7647,M,7.095,M,0.9,0004*40
$GPGGA,085505.00,3015.9201607,N,12007.1358392,E,4,32,0.5,3.7627,M,7.095,M,1.0,0004*48
$GPGGA,085505.10,3015.9201605,N,12007.1358393,E,4,32,0.5,3.7607,M,7.095,M,0.1,0004*48
$GPGGA,085505.20,3015.9201605,N,12007.1358405,E,4,32,0.5,3.7638,M,7.095,M,0.2,0004*4C
$GPGGA,085505.30,3015.9201606,N,12007.1358401,E,4,32,0.5,3.7606,M,7.095,M,0.3,0004*46
$GPGGA,085505.40,3015.9201600,N,12007.1358401,E,4,32,0.5,3.7614,M,7.095,M,0.4,0004*43
$GPGGA,085505.50,3015.9201596,N,12007.1358401,E,4,32,0.5,3.7607,M,7.095,M,0.5,0004*4D
$GPGGA,085505.60,3015.9201598,N,12007.1358396,E,4,32,0.5,3.7622,M,7.095,M,0.6,0004*4D
$GPGGA,085505.70,3015.9201598,N,12007.1358398,E,4,32,0.5,3.7601,M,7.095,M,0.7,0004*42
$GPGGA,085505.80,3015.9201591,N,12007.1358399,E,4,32,0.5,3.7660,M,7.095,M,0.8,0004*4D
$GPGGA,085505.90,3015.9201610,N,12007.1358398,E,4,32,0.5,3.7600,M,7.095,M,0.9,0004*40
$GPGGA,085506.00,3015.9201610,N,12007.1358415,E,4,32,0.5,3.7658,M,7.095,M,1.0,0004*4D
$GPGGA,085506.10,3015.9201613,N,12007.1358423,E,4,32,0.5,3.7719,M,7.095,M,0.1,0004*4E
$GPGGA,085506.20,3015.9201620,N,12007.1358424,E,4,32,0.5,3.7730,M,7.095,M,0.2,0004*42
$GPGGA,085506.30,3015.9201617,N,12007.1358421,E,4,32,0.5,3.7730,M,7.095,M,0.3,0004*43
$GPGGA,085506.40,3015.9201620,N,12007.1358431,E,4,32,0.5,3.7770,M,7.095,M,0.4,0004*42
$GPGGA,085506.50,3015.9201621,N,12007.1358430,E,4,32,0.5,3.7751,M,7.095,M,0.5,0004*41
$GPGGA,085506.60,3015.9201623,N,12007.1358434,E,4,32,0.5,3.7766,M,7.095,M,0.6,0004*43
$GPGGA,085506.70,3015.9201624,N,12007.1358433,E,4,32,0.5,3.7786,M,7.095,M,0.7,0004*4D
$GPGGA,085506.80,3015.9201621,N,12007.1358432,E,4,32,0.5,3.7775,M,7.095,M,0.8,0004*45
$GPGGA,085506.90,3015.9201620,N,12007.1358431,E,4,32,0.5,3.7784,M,7.095,M,0.9,0004*49
$GPGGA,085507.00,3015.9201620,N,12007.1358433,E,4,32,0.5,3.7773,M,7.095,M,1.0,0004*43
$GPGGA,085507.10,3015.9201618,N,12007.1358418,E,4,32,0.5,3.7702,M,7.095,M,0.1,0004*46
$GPGGA,085507.20,3015.9201615,N,12007.1358423,E,4,32,0.5,3.7730,M,7.095,M,0.2,0004*42
$GPGGA,085507.30,3015.9201614,N,12007.1358424,E,4,32,0.5,3.7754,M,7.095,M,0.3,0004*46
$GPGGA,085507.40,3015.9201615,N,12007.1358426,E,4,32,0.5,3.7740,M,7.095,M,0.4,0004*40
$GPGGA,085507.50,3015.9201614,N,12007.1358428,E,4,32,0.5,3.7743,M,7.095,M,0.5,0004*4C
$GPGGA,085507.60,3015.9201609,N,12007.1358424,E,4,32,0.5,3.7726,M,7.095,M,0.6,0004*4F
$GPGGA,085507.70,3015.9201608,N,12007.1358416,E,4,32,0.5,3.7728,M,7.095,M,0.7,0004*41
$GPGGA,085507.80,3015.9201612,N,12007.1358414,E,4,32,0.5,3.7727,M,7.095,M,0.8,0004*47
$GPGGA,085507.90,3015.9201607,N,12007.1358429,E,4,32,0.5,3.7764,M,7.095,M,0.9,0004*4A
$GPGGA,085508.00,3015.9201603,N,12007.1358421,E,4,32,0.5,3.7767,M,7.095,M,1.0,0004*4B
$GPGGA,085508.10,3015.9201603,N,12007.1358429,E,4,32,0.5,3.7745,M,7.095,M,0.1,0004*42
$GPGGA,085508.20,3015.9201609,N,12007.1358424,E,4,32,0.5,3.7734,M,7.095,M,0.2,0004*43
$GPGGA,085508.30,3015.9201603,N,12007.1358432,E,4,32,0.5,3.7788,M,7.095,M,0.3,0004*49
$GPGGA,085508.40,3015.9201607,N,12007.1358434,E,4,32,0.5,3.7760,M,7.095,M,0.4,0004*4D
$GPGGA,085508.50,3015.9201608,N,12007.1358431,E,4,32,0.5,3.7755,M,7.095,M,0.5,0004*41
$GPGGA,085508.60,3015.9201605,N,12007.1358429,E,4,32,0.5,3.7747,M,7.095,M,0.6,0004*46
$GPGGA,085508.70,3015.9201611,N,12007.1358423,E,4,32,0.5,3.7705,M,7.095,M,0.7,0004*4F
$GPGGA,085508.80,3015.9201610,N,12007.1358429,E,4,32,0.5,3.7739,M,7.095,M,0.8,0004*4B
$GPGGA,085508.90,3015.9201616,N,12007.1358428,E,4,32,0.5,3.7743,M,7.095,M,0.9,0004*41
$GPGGA,085509.00,3015.9201613,N,12007.1358430,E,4,32,0.5,3.7740,M,7.095,M,1.0,0004*4E
$GPGGA,085509.10,3015.9201613,N,12007.1358435,E,4,32,0.5,3.7754,M,7.095,M,0.1,0004*4F
$GPGGA,085509.20,3015.9201611,N,12007.1358438,E,4,32,0.5,3.7784,M,7.095,M,0.2,0004*4D
$GPGGA,085509.30,3015.9201609,N,12007.1358434,E,4,32,0.5,3.7745,M,7.095,M,0.3,0004*45
$GPGGA,085509.40,3015.9201607,N,12007.1358431,E,4,32,0.5,3.7780,M,7.095,M,0.4,0004*47
$GPGGA,085509.50,3015.9201609,N,12007.1358428,E,4,32,0.5,3.7756,M,7.095,M,0.5,0004*4A
$GPGGA,085509.60,3015.9201610,N,12007.1358428,E,4,32,0.5,3.7763,M,7.095,M,0.6,0004*44
$GPGGA,085509.70,3015.9201607,N,12007.1358440,E,4,32,0.5,3.7793,M,7.095,M,0.7,0004*43
$GPGGA,085509.80,3015.9201611,N,12007.1358428,E,4,32,0.5,3.7782,M,7.095,M,0.8,0004*4A
$GPGGA,085509.90,3015.9201610,N,12007.1358429,E,4,32,0.5,3.7761,M,7.095,M,0.9,0004*47
$GPGGA,085510.00,3015.9201609,N,12007.1358431,E,4,32,0.5,3.7798,M,7.095,M,1.0,0004*49
$GPGGA,085510.10,3015.9201602,N,12007.1358440,E,4,32,0.5,3.7757,M,7.095,M,0.1,0004*46
$GPGGA,085510.20,3015.9201602,N,12007.1358436,E,4,32,0.5,3.7731,M,7.095,M,0.2,0004*47
$GPGGA,085510.30,3015.9201602,N,12007.1358436,E,4,32,0.5,3.7721,M,7.095,M,0.3,0004*46
$GPGGA,085510.40,3015.9201604,N,12007.1358434,E,4,32,0.5,3.7688,M,7.095,M,0.4,0004*40
$GPGGA,085510.50,3015.9201608,N,12007.1358434,E,4,32,0.5,3.7712,M,7.095,M,0.5,0004*4E
$GPGGA,085510.60,3015.9201605,N,12007.1358430,E,4,32,0.5,3.7686,M,7.095,M,0.6,0004*4B
$GPGGA,085510.70,3015.9201606,N,12007.1358435,E,4,32,0.5,3.7727,M,7.095,M,0.7,0004*47
$GPGGA,085510.80,3015.9201605,N,12007.1358434,E,4,32,0.5,3.7739,M,7.095,M,0.8,0004*4A
$GPGGA,085510.90,3015.9201602,N,12007.1358435,E,4,32,0.5,3.7721,M,7.095,M,0.9,0004*45
$GPGGA,085511.00,3015.9201603,N,12007.1358436,E,4,32,0.5,3.7711,M,7.095,M,1.0,0004*44
$GPGGA,085511.10,3015.9201609,N,12007.1358416,E,4,32,0.5,3.7704,M,7.095,M,0.1,0004*49
$GPGGA,085511.20,3015.9201605,N,12007.1358425,E,4,32,0.5,3.7711,M,7.095,M,0.2,0004*41
$GPGGA,085511.30,3015.9201599,N,12007.1358423,E,4,32,0.5,3.7731,M,7.095,M,0.3,0004*43
$GPGGA,085511.40,3015.9201601,N,12007.1358425,E,4,32,0.5,3.7707,M,7.095,M,0.4,0004*42
$GPGGA,085511.50,3015.9201607,N,12007.1358423,E,4,32,0.5,3.7705,M,7.095,M,0.5,0004*40
$GPGGA,085511.60,3015.9201609,N,12007.1358427,E,4,32,0.5,3.7692,M,7.095,M,0.6,0004*45
$GPGGA,085511.70,3015.9201609,N,12007.1358418,E,4,32,0.5,3.7684,M,7.095,M,0.7,0004*4E
$GPGGA,085511.80,3015.9201607,N,12007.1358427,E,4,32,0.5,3.7682,M,7.095,M,0.8,0004*4A
$GPGGA,085511.90,3015.9201606,N,12007.1358421,E,4,32,0.5,3.7689,M,7.095,M,0.9,0004*46
$GPGGA,085512.00,3015.9201610,N,12007.1358425,E,4,32,0.5,3.7680,M,7.095,M,1.0,0004*4E
$GPGGA,085512.10,3015.9201603,N,12007.1358420,E,4,32,0.5,3.7710,M,7.095,M,0.1,0004*40
$GPGGA,085512.20,3015.9201607,N,12007.1358408,E,4,32,0.5,3.7675,M,7.095,M,0.2,0004*4C
$GPGGA,085512.30,3015.9201607,N,12007.1358412,E,4,32,0.5,3.7689,M,7.095,M,0.3,0004*44
$GPGGA,085512.40,3015.9201609,N,12007.1358417,E,4,32,0.5,3.7679,M,7.095,M,0.4,0004*40
$GPGGA,085512.50,3015.9201615,N,12007.1358405,E,4,32,0.5,3.7652,M,7.095,M,0.5,0004*47
$GPGGA,085512.60,3015.9201615,N,12007.1358410,E,4,32,0.5,3.7669,M,7.095,M,0.6,0004*4B
$GPGGA,085512.70,3015.9201618,N,12007.1358407,E,4,32,0.5,3.7654,M,7.095,M,0.7,0004*4E
$GPGGA,085512.80,3015.9201614,N,12007.1358405,E,4,32,0.5,3.7645,M,7.095,M,0.8,0004*40
$GPGGA,085512.90,3015.9201617,N,12007.1358402,E,4,32,0.5,3.7642,M,7.095,M,0.9,0004*43
$GPGGA,085513.00,3015.9201611,N,12007.1358404,E,4,32,0.5,3.7650,M,7.095,M,1.0,0004*40
$GPGGA,085513.10,3015.9201618,N,12007.1358424,E,4,32,0.5,3.7647,M,7.095,M,0.1,0004*4C
$GPGGA,085513.20,3015.9201614,N,12007.1358414,E,4,32,0.5,3.7660,M,7.095,M,0.2,0004*46
$GPGGA,085513.30,3015.9201609,N,12007.1358420,E,4,32,0.5,3.7675,M,7.095,M,0.3,0004*49
$GPGGA,085513.40,3015.9201611,N,12007.1358422,E,4,32,0.5,3.7661,M,7.095,M,0.4,0004*47
$GPGGA,085513.50,3015.9201615,N,12007.1358423,E,4,32,0.5,3.7673,M,7.095,M,0.5,0004*41
$GPGGA,085513.60,3015.9201613,N,12007.1358418,E,4,32,0.5,3.7661,M,7.095,M,0.6,0004*4C
$GPGGA,085513.70,3015.9201611,N,12007.1358417,E,4,32,0.5,3.7662,M,7.095,M,0.7,0004*42
$GPGGA,085513.80,3015.9201609,N,12007.1358421,E,4,32,0.5,3.7692,M,7.095,M,0.8,0004*41
$GPGGA,085513.90,3015.9201613,N,12007.1358419,E,4,32,0.5,3.7683,M,7.095,M,0.9,0004*41
$GPGGA,085514.00,3015.9201615,N,12007.1358420,E,4,32,0.5,3.7663,M,7.095,M,1.0,0004*45
$GPGGA,085514.10,3015.9201608,N,12007.1358422,E,4,32,0.5,3.7679,M,7.095,M,0.1,0004*41
$GPGGA,085514.20,3015.9201612,N,12007.1358426,E,4,32,0.5,3.7670,M,7.095,M,0.2,0004*47
$GPGGA,085514.30,3015.9201610,N,12007.1358412,E,4,32,0.5,3.7650,M,7.095,M,0.3,0004*40
$GPGGA,085514.40,3015.9201609,N,12007.1358424,E,4,32,0.5,3.7676,M,7.095,M,0.4,0004*49
$GPGGA,085514.50,3015.9201602,N,12007.1358431,E,4,32,0.5,3.7679,M,7.095,M,0.5,0004*49
$GPGGA,085514.60,3015.9201611,N,12007.1358427,E,4,32,0.5,3.7670,M,7.095,M,0.6,0004*45
$GPGGA,085514.70,3015.9201612,N,12007.1358422,E,4,32,0.5,3.7649,M,7.095,M,0.7,0004*49
$GPGGA,085514.80,3015.9201606,N,12007.1358424,E,4,32,0.5,3.7672,M,7.095,M,0.8,0004*42
$GPGGA,085514.90,3015.9201610,N,12007.1358433,E,4,32,0.5,3.7688,M,7.095,M,0.9,0004*46
$GPGGA,085515.00,3015.9201603,N,12007.1358432,E,4,32,0.5,3.7705,M,7.095,M,1.0,0004*41
$GPGGA,085515.10,3015.9201608,N,12007.1358429,E,4,33,0.5,3.7676,M,7.095,M,0.1,0004*45
$GPGGA,085515.20,3015.9201606,N,12007.1358415,E,4,33,0.5,3.7642,M,7.095,M,0.2,0004*43
$GPGGA,085515.30,3015.9201609,N,12007.1358425,E,4,33,0.5,3.7657,M,7.095,M,0.3,0004*4B
$GPGGA,085515.40,3015.9201615,N,12007.1358419,E,4,33,0.5,3.7642,M,7.095,M,0.4,0004*4D
$GPGGA,085515.50,3015.9201607,N,12007.1358416,E,4,33,0.5,3.7617,M,7.095,M,0.5,0004*41
$GPGGA,085515.60,3015.9201610,N,12007.1358417,E,4,33,0.5,3.7622,M,7.095,M,0.6,0004*40
$GPGGA,085515.70,3015.9201608,N,12007.1358419,E,4,33,0.5,3.7626,M,7.095,M,0.7,0004*43
$GPGGA,085515.80,3015.9201615,N,12007.1358418,E,4,33,0.5,3.7616,M,7.095,M,0.8,0004*4D
$GPGGA,085515.90,3015.9201608,N,12007.1358421,E,4,33,0.5,3.7639,M,7.095,M,0.9,0004*46
$GPGGA,085516.00,3015.9201608,N,12007.1358421,E,4,33,0.5,3.7640,M,7.095,M,1.0,0004*4A
$GPGGA,085516.10,3015.9201614,N,12007.1358408,E,4,33,0.5,3.7607,M,7.095,M,0.1,0004*4E
$GPGGA,085516.20,3015.9201614,N,12007.1358410,E,4,33,0.5,3.7606,M,7.095,M,0.2,0004*46
$GPGGA,085516.30,3015.9201612,N,12007.1358412,E,4,33,0.5,3.7619,M,7.095,M,0.3,0004*4C
$GPGGA,085516.40,3015.9201604,N,12007.1358408,E,4,33,0.5,3.7637,M,7.095,M,0.4,0004*4C
$GPGGA,085516.50,3015.9201612,N,12007.1358411,E,4,33,0.5,3.7620,M,7.095,M,0.5,0004*45
$GPGGA,085516.60,3015.9201612,N,12007.1358406,E,4,33,0.5,3.7582,M,7.095,M,0.6,0004*48
$GPGGA,085516.70,3015.9201610,N,12007.1358416,E,4,33,0.5,3.7607,M,7.095,M,0.7,0004*45
$GPGGA,085516.80,3015.9201610,N,12007.1358415,E,4,33,0.5,3.7634,M,7.095,M,0.8,0004*46
$GPGGA,085516.90,3015.9201610,N,12007.1358410,E,4,33,0.5,3.7628,M,7.095,M,0.9,0004*4E
$GPGGA,085517.00,3015.9201609,N,12007.1358412,E,4,33,0.5,3.7612,M,7.095,M,1.0,0004*4D
$GPGGA,085517.10,3015.9201609,N,12007.1358401,E,4,33,0.5,3.7616,M,7.095,M,0.1,0004*4A
$GPGGA,085517.20,3015.9201604,N,12007.1358394,E,4,33,0.5,3.7576,M,7.095,M,0.2,0004*49
$GPGGA,085517.30,3015.9201610,N,12007.1358397,E,4,33,0.5,3.7612,M,7.095,M,0.3,0004*4E
$GPGGA,085517.40,3015.9201608,N,12007.1358398,E,4,33,0.5,3.7605,M,7.095,M,0.4,0004*4E
$GPGGA,085517.50,3015.9201608,N,12007.1358398,E,4,33,0.5,3.7591,M,7.095,M,0.5,0004*40
$GPGGA,085517.60,3015.9201609,N,12007.1358400,E,4,33,0.5,3.7640,M,7.095,M,0.6,0004*48
$GPGGA,085517.70,3015.9201607,N,12007.1358404,E,4,33,0.5,3.7617,M,7.095,M,0.7,0004*40
$GPGGA,085517.80,3015.9201609,N,12007.1358413,E,4,33,0.5,3.7623,M,7.095,M,0.8,0004*4F
$GPGGA,085517.90,3015.9201602,N,12007.1358407,E,4,33,0.5,3.7618,M,7.095,M,0.9,0004*49
$GPGGA,085518.00,3015.9201606,N,12007.1358421,E,4,33,0.5,3.7655,M,7.095,M,1.0,0004*4E
$GPGGA,085518.10,3015.9201605,N,12007.1358407,E,4,33,0.5,3.7600,M,7.095,M,0.1,0004*48
$GPGGA,085518.20,3015.9201605,N,12007.1358409,E,4,33,0.5,3.7583,M,7.095,M,0.2,0004*4E
$GPGGA,085518.30,3015.9201606,N,12007.1358423,E,4,32,0.5,3.7597,M,7.095,M,0.3,0004*41
$GPGGA,085518.40,3015.9201606,N,12007.1358412,E,4,32,0.5,3.7626,M,7.095,M,0.4,0004*4A
$GPGGA,085518.50,3015.9201610,N,12007.1358417,E,4,33,0.5,3.7618,M,7.095,M,0.5,0004*44
$GPGGA,085518.60,3015.9201603,N,12007.1358418,E,4,33,0.5,3.7634,M,7.095,M,0.6,0004*47
$GPGGA,085518.70,3015.9201609,N,12007.1358418,E,4,33,0.5,3.7624,M,7.095,M,0.7,0004*4C
$GPGGA,085518.80,3015.9201611,N,12007.1358415,E,4,33,0.5,3.7600,M,7.095,M,0.8,0004*4E
$GPGGA,085518.90,3015.9201607,N,12007.1358423,E,4,33,0.5,3.7612,M,7.095,M,0.9,0004*4F
$GPGGA,085519.00,3015.9201608,N,12007.1358417,E,4,33,0.5,3.7603,M,7.095,M,1.0,0004*47
$GPGGA,085519.10,3015.9201606,N,12007.1358407,E,4,33,0.5,3.7669,M,7.095,M,0.1,0004*45
$GPGGA,085519.20,3015.9201609,N,12007.1358411,E,4,33,0.5,3.7660,M,7.095,M,0.2,0004*44
$GPGGA,085519.30,3015.9201605,N,12007.1358404,E,4,33,0.5,3.7648,M,7.095,M,0.3,0004*46
$GPGGA,085519.40,3015.9201614,N,12007.1358406,E,4,33,0.5,3.7645,M,7.095,M,0.4,0004*49
$GPGGA,085519.50,3015.9201611,N,12007.1358419,E,4,33,0.5,3.7657,M,7.095,M,0.5,0004*41
$GPGGA,085519.60,3015.9201609,N,12007.1358411,E,4,33,0.5,3.7653,M,7.095,M,0.6,0004*44
$GPGGA,085519.70,3015.9201614,N,12007.1358403,E,4,33,0.5,3.7641,M,7.095,M,0.7,0004*48
$GPGGA,085519.80,3015.9201618,N,12007.1358407,E,4,33,0.5,3.7639,M,7.095,M,0.8,0004*4F
$GPGGA,085519.90,3015.9201612,N,12007.1358408,E,4,33,0.5,3.7666,M,7.095,M,0.9,0004*40
$GPGGA,085520.00,3015.9201608,N,12007.1358398,E,4,33,0.5,3.7672,M,7.095,M,1.0,0004*4B
$GPGGA,085520.10,3015.9201613,N,12007.1358397,E,4,33,0.5,3.7655,M,7.095,M,0.1,0004*4A
$GPGGA,085520.20,3015.9201612,N,12007.1358402,E,4,33,0.5,3.7663,M,7.095,M,0.2,0004*45
$GPGGA,085520.30,3015.9201613,N,12007.1358400,E,4,33,0.5,3.7657,M,7.095,M,0.3,0004*41
$GPGGA,085520.40,3015.9201609,N,12007.1358405,E,4,33,0.5,3.7688,M,7.095,M,0.4,0004*4D
$GPGGA,085520.50,3015.9201610,N,12007.1358412,E,4,33,0.5,3.7672,M,7.095,M,0.5,0004*46
$GPGGA,085520.60,3015.9201601,N,12007.1358411,E,4,33,0.5,3.7694,M,7.095,M,0.6,0004*4D
$GPGGA,085520.70,3015.9201605,N,12007.1358415,E,4,33,0.5,3.7709,M,7.095,M,0.7,0004*48
$GPGGA,085520.80,3015.9201603,N,12007.1358411,E,4,33,0.5,3.7688,M,7.095,M,0.8,0004*42
$GPGGA,085520.90,3015.9201607,N,12007.1358425,E,4,33,0.5,3.7707,M,7.095,M,0.9,0004*47
$GPGGA,085521.00,3015.9201607,N,12007.1358415,E,4,33,0.5,3.7684,M,7.095,M,1.0,0004*4E
$GPGGA,085521.10,3015.9201607,N,12007.1358429,E,4,33,0.5,3.7736,M,7.095,M,0.1,0004*48
$GPGGA,085521.20,3015.9201606,N,12007.1358431,E,4,33,0.5,3.7710,M,7.095,M,0.2,0004*44
$GPGGA,085521.30,3015.9201610,N,12007.1358422,E,4,33,0.5,3.7713,M,7.095,M,0.3,0004*42
$GPGGA,085521.40,3015.9201608,N,12007.1358431,E,4,33,0.5,3.7736,M,7.095,M,0.4,0004*4E
$GPGGA,085521.50,3015.9201609,N,12007.1358429,E,4,33,0.5,3.7744,M,7.095,M,0.5,0004*43
$GPGGA,085521.60,3015.9201609,N,12007.1358430,E,4,33,0.5,3.7737,M,7.095,M,0.6,0004*4F
$GPGGA,085521.70,3015.9201608,N,12007.1358428,E,4,33,0.5,3.7733,M,7.095,M,0.7,0004*43
$GPGGA,085521.80,3015.9201609,N,12007.1358426,E,4,33,0.5,3.7770,M,7.095,M,0.8,0004*4B
$GPGGA,085521.90,3015.9201607,N,12007.1358423,E,4,33,0.5,3.7736,M,7.095,M,0.9,0004*42
$GPGGA,085522.00,3015.9201603,N,12007.1358427,E,4,33,0.5,3.7762,M,7.095,M,1.0,0004*41
$GPGGA,085522.10,3015.9201611,N,12007.1358429,E,4,33,0.5,3.7721,M,7.095,M,0.1,0004*4A
$GPGGA,085522.20,3015.9201612,N,12007.1358424,E,4,33,0.5,3.7704,M,7.095,M,0.2,0004*43
$GPGGA,085522.30,3015.9201613,N,12007.1358417,E,4,33,0.5,3.7684,M,7.095,M,0.3,0004*4B
$GPGGA,085522.40,3015.9201614,N,12007.1358423,E,4,33,0.5,3.7692,M,7.095,M,0.4,0004*4C
$GPGGA,085522.50,3015.9201611,N,12007.1358427,E,4,33,0.5,3.7695,M,7.095,M,0.5,0004*4A
$GPGGA,085522.60,3015.9201610,N,12007.1358421,E,4,33,0.5,3.7680,M,7.095,M,0.6,0004*49
$GPGGA,085522.70,3015.9201611,N,12007.1358428,E,4,33,0.5,3.7671,M,7.095,M,0.7,0004*4F
$GPGGA,085522.80,3015.9201612,N,12007.1358426,E,4,33,0.5,3.7689,M,7.095,M,0.8,0004*45
$GPGGA,085522.90,3015.9201616,N,12007.1358427,E,4,33,0.5,3.7702,M,7.095,M,0.9,0004*42
$GPGGA,085523.00,3015.9201610,N,12007.1358425,E,4,33,0.5,3.7684,M,7.095,M,1.0,0004*49
$GPGGA,085523.10,3015.9201605,N,12007.1358413,E,4,33,0.5,3.7717,M,7.095,M,0.1,0004*42
$GPGGA,085523.20,3015.9201603,N,12007.1358417,E,4,33,0.5,3.7700,M,7.095,M,0.2,0004*46
$GPGGA,085523.30,3015.9201605,N,12007.1358419,E,4,33,0.5,3.7717,M,7.095,M,0.3,0004*48
$GPGGA,085523.40,3015.9201606,N,12007.1358417,E,4,33,0.5,3.7711,M,7.095,M,0.4,0004*43
$GPGGA,085523.50,3015.9201605,N,12007.1358417,E,4,33,0.5,3.7708,M,7.095,M,0.5,0004*48
$GPGGA,085523.60,3015.9201607,N,12007.1358416,E,4,33,0.5,3.7699,M,7.095,M,0.6,0004*42
$GPGGA,085523.70,3015.9201605,N,12007.1358413,E,4,33,0.5,3.7696,M,7.095,M,0.7,0004*4A
$GPGGA,085523.80,3015.9201602,N,12007.1358420,E,4,33,0.5,3.7705,M,7.095,M,0.8,0004*46
$GPGGA,085523.90,3015.9201605,N,12007.1358421,E,4,33,0.5,3.7690,M,7.095,M,0.9,0004*4D
$GPGGA,085524.00,3015.9201608,N,12007.1358414,E,4,33,0.5,3.7687,M,7.095,M,1.0,0004*46
$GPGGA,085524.10,3015.9201606,N,12007.1358406,E,4,33,0.5,3.7735,M,7.095,M,0.1,0004*42
$GPGGA,085524.20,3015.9201604,N,12007.1358418,E,4,33,0.5,3.7732,M,7.095,M,0.2,0004*48
$GPGGA,085524.30,3015.9201603,N,12007.1358411,E,4,33,0.5,3.7730,M,7.095,M,0.3,0004*44
$GPGGA,085524.40,3015.9201604,N,12007.1358416,E,4,33,0.5,3.7720,M,7.095,M,0.4,0004*45
$GPGGA,085524.50,3015.9201602,N,12007.1358413,E,4,33,0.5,3.7715,M,7.095,M,0.5,0004*40
$GPGGA,085524.60,3015.9201602,N,12007.1358415,E,4,33,0.5,3.7706,M,7.095,M,0.6,0004*44
$GPGGA,085524.70,3015.9201601,N,12007.1358419,E,4,33,0.5,3.7720,M,7.095,M,0.7,0004*4F
$GPGGA,085524.80,3015.9201601,N,12007.1358421,E,4,33,0.5,3.7721,M,7.095,M,0.8,0004*45
$GPGGA,085524.90,3015.9201600,N,12007.1358419,E,4,33,0.5,3.7723,M,7.095,M,0.9,0004*4D
$GPGGA,085525.00,3015.9201602,N,12007.1358417,E,4,33,0.5,3.7700,M,7.095,M,1.0,0004*40
$GPGGA,085525.10,3015.9201608,N,12007.1358428,E,4,33,0.5,3.7679,M,7.095,M,0.1,0004*48
$GPGGA,085525.20,3015.9201607,N,12007.1358426,E,4,33,0.5,3.7682,M,7.095,M,0.2,0004*4D
$GPGGA,085525.30,3015.9201609,N,12007.1358432,E,4,33,0.5,3.7684,M,7.095,M,0.3,0004*40
$GPGGA,085525.40,3015.9201611,N,12007.1358433,E,4,33,0.5,3.7683,M,7.095,M,0.4,0004*4F
$GPGGA,085525.50,3015.9201611,N,12007.1358440,E,4,33,0.5,3.7686,M,7.095,M,0.5,0004*4E
$GPGGA,085525.60,3015.9201609,N,12007.1358427,E,4,33,0.5,3.7691,M,7.095,M,0.6,0004*40
$GPGGA,085525.70,3015.9201611,N,12007.1358430,E,4,33,0.5,3.7713,M,7.095,M,0.7,0004*44
$GPGGA,085525.80,3015.9201609,N,12007.1358440,E,4,33,0.5,3.7727,M,7.095,M,0.8,0004*4D
$GPGGA,085525.90,3015.9201613,N,12007.1358438,E,4,33,0.5,3.7693,M,7.095,M,0.9,0004*47
$GPGGA,085526.00,3015.9201612,N,12007.1358433,E,4,33,0.5,3.7710,M,7.095,M,1.0,0004*45
$GPGGA,085526.10,3015.9201617,N,12007.1358417,E,4,33,0.5,3.7654,M,7.095,M,0.1,0004*46
$GPGGA,085526.20,3015.9201618,N,12007.1358424,E,4,33,0.5,3.7689,M,7.095,M,0.2,0004*49
$GPGGA,085526.30,3015.9201615,N,12007.1358416,E,4,33,0.5,3.7659,M,7.095,M,0.3,0004*48
$GPGGA,085526.40,3015.9201615,N,12007.1358419,E,4,33,0.5,3.7687,M,7.095,M,0.4,0004*44
$GPGGA,085526.50,3015.9201618,N,12007.1358415,E,4,33,0.5,3.7645,M,7.095,M,0.5,0004*4B
$GPGGA,085526.60,3015.9201613,N,12007.1358414,E,4,33,0.5,3.7688,M,7.095,M,0.6,0004*40
$GPGGA,085526.70,3015.9201615,N,12007.1358414,E,4,33,0.5,3.7666,M,7.095,M,0.7,0004*46
$GPGGA,085526.80,3015.9201613,N,12007.1358417,E,4,33,0.5,3.7665,M,7.095,M,0.8,0004*40
$GPGGA,085526.90,3015.9201613,N,12007.1358412,E,4,33,0.5,3.7668,M,7.095,M,0.9,0004*48
$GPGGA,085527.00,3015.9201615,N,12007.1358419,E,4,33,0.5,3.7662,M,7.095,M,1.0,0004*4F
$GPGGA,085527.10,3015.9201609,N,12007.1358423,E,4,33,0.5,3.7685,M,7.095,M,0.1,0004*43
$GPGGA,085527.20,3015.9201613,N,12007.1358427,E,4,33,0.5,3.7731,M,7.095,M,0.2,0004*42
$GPGGA,085527.30,3015.9201612,N,12007.1358419,E,4,33,0.5,3.7712,M,7.095,M,0.3,0004*4F
$GPGGA,085527.40,3015.9201613,N,12007.1358418,E,4,33,0.5,3.7690,M,7.095,M,0.4,0004*44
$GPGGA,085527.50,3015.9201613,N,12007.1358415,E,4,33,0.5,3.7687,M,7.095,M,0.5,0004*4F
$GPGGA,085527.60,3015.9201610,N,12007.1358412,E,4,33,0.5,3.7691,M,7.095,M,0.6,0004*4C
$GPGGA,085527.70,3015.9201614,N,12007.1358420,E,4,33,0.5,3.7717,M,7.095,M,0.7,0004*46
$GPGGA,085527.80,3015.9201613,N,12007.1358419,E,4,33,0.5,3.7711,M,7.095,M,0.8,0004*4D
$GPGGA,085527.90,3015.9201619,N,12007.1358419,E,4,33,0.5,3.7657,M,7.095,M,0.9,0004*44
$GPGGA,085528.00,3015.9201619,N,12007.1358428,E,4,33,0.5,3.7721,M,7.095,M,1.0,0004*48
$GPGGA,085528.10,3015.9201608,N,12007.1358421,E,4,33,0.5,3.7717,M,7.095,M,0.1,0004*45
$GPGGA,085528.20,3015.9201610,N,12007.1358425,E,4,33,0.5,3.7717,M,7.095,M,0.2,0004*48
$GPGGA,085528.30,3015.9201607,N,12007.1358423,E,4,33,0.5,3.7689,M,7.095,M,0.3,0004*4E
$GPGGA,085528.40,3015.9201611,N,12007.1358407,E,4,33,0.5,3.7630,M,7.095,M,0.4,0004*4D
$GPGGA,085528.50,3015.9201604,N,12007.1358413,E,4,33,0.5,3.7657,M,7.095,M,0.5,0004*4D
$GPGGA,085528.60,3015.9201610,N,12007.1358420,E,4,33,0.5,3.7633,M,7.095,M,0.6,0004*4A
$GPGGA,085528.70,3015.9201609,N,12007.1358410,E,4,33,0.5,3.7623,M,7.095,M,0.7,0004*40
$GPGGA,085528.80,3015.9201613,N,12007.1358414,E,4,33,0.5,3.7624,M,7.095,M,0.8,0004*48
$GPGGA,085528.90,3015.9201611,N,12007.1358419,E,4,33,0.5,3.7637,M,7.095,M,0.9,0004*45
$GPGGA,085529.00,3015.9201609,N,12007.1358410,E,4,33,0.5,3.7617,M,7.095,M,1.0,0004*47
$GPGGA,085529.10,3015.9201612,N,12007.1358417,E,4,33,0.5,3.7552,M,7.095,M,0.1,0004*49
$GPGGA,085529.20,3015.9201612,N,12007.1358414,E,4,33,0.5,3.7562,M,7.095,M,0.2,0004*49
$GPGGA,085529.30,3015.9201613,N,12007.1358419,E,4,33,0.5,3.7550,M,7.095,M,0.3,0004*44
$GPGGA,085529.40,3015.9201617,N,12007.1358411,E,4,33,0.5,3.7529,M,7.095,M,0.4,0004*46
$GPGGA,085529.50,3015.9201616,N,12007.1358415,E,4,33,0.5,3.7522,M,7.095,M,0.5,0004*48
$GPGGA,085529.60,3015.9201613,N,12007.1358422,E,4,33,0.5,3.7516,M,7.095,M,0.6,0004*4E
$GPGGA,085529.70,3015.9201619,N,12007.1358411,E,4,33,0.5,3.7509,M,7.095,M,0.7,0004*4A
$GPGGA,085529.80,3015.9201613,N,12007.1358418,E,4,33,0.5,3.7478,M,7.095,M,0.8,0004*4E
$GPGGA,085529.90,3015.9201614,N,12007.1358419,E,4,33,0.5,3.7522,M,7.095,M,0.9,0004*46
$GPGGA,085530.00,3015.9201612,N,12007.1358420,E,4,33,0.5,3.7508,M,7.095,M,1.0,0004*4B
$GPGGA,085530.10,3015.9201613,N,12007.1358419,E,4,33,0.5,3.7595,M,7.095,M,0.1,0004*45
$GPGGA,085530.20,3015.9201616,N,12007.1358417,E,4,33,0.5,3.7542,M,7.095,M,0.2,0004*44
$GPGGA,085530.30,3015.9201616,N,12007.1358423,E,4,33,0.5,3.7559,M,7.095,M,0.3,0004*49
$GPGGA,085530.40,3015.9201620,N,12007.1358420,E,4,33,0.5,3.7553,M,7.095,M,0.4,0004*45
$GPGGA,085530.50,3015.9201619,N,12007.1358415,E,4,33,0.5,3.7584,M,7.095,M,0.5,0004*43
$GPGGA,085530.60,3015.9201621,N,12007.1358412,E,4,33,0.5,3.7551,M,7.095,M,0.6,0004*47
$GPGGA,085530.70,3015.9201622,N,12007.1358422,E,4,33,0.5,3.7571,M,7.095,M,0.7,0004*45
$GPGGA,085530.80,3015.9201614,N,12007.1358411,E,4,33,0.5,3.7544,M,7.095,M,0.8,0004*46
$GPGGA,085530.90,3015.9201614,N,12007.1358418,E,4,33,0.5,3.7559,M,7.095,M,0.9,0004*43
$GPGGA,085531.00,3015.9201613,N,12007.1358417,E,4,33,0.5,3.7531,M,7.095,M,1.0,0004*45
$GPGGA,085531.10,3015.9201622,N,12007.1358410,E,4,33,0.5,3.7472,M,7.095,M,0.1,0004*47
$GPGGA,085531.20,3015.9201620,N,12007.1358409,E,4,33,0.5,3.7505,M,7.095,M,0.2,0004*4C
$GPGGA,085531.30,3015.9201620,N,12007.1358418,E,4,33,0.5,3.7509,M,7.095,M,0.3,0004*40
$GPGGA,085531.40,3015.9201621,N,12007.1358419,E,4,33,0.5,3.7502,M,7.095,M,0.4,0004*4B
$GPGGA,085531.50,3015.9201624,N,12007.1358416,E,4,33,0.5,3.7514,M,7.095,M,0.5,0004*46
$GPGGA,085531.60,3015.9201623,N,12007.1358416,E,4,33,0.5,3.7518,M,7.095,M,0.6,0004*4D
$GPGGA,085531.70,3015.9201625,N,12007.1358409,E,4,33,0.5,3.7482,M,7.095,M,0.7,0004*47
$GPGGA,085531.80,3015.9201623,N,12007.1358412,E,4,33,0.5,3.7509,M,7.095,M,0.8,0004*49
$GPGGA,085531.90,3015.9201622,N,12007.1358409,E,4,33,0.5,3.7511,M,7.095,M,0.9,0004*4B
$GPGGA,085532.00,3015.9201625,N,12007.1358406,E,4,33,0.5,3.7511,M,7.095,M,1.0,0004*41
$GPGGA,085532.10,3015.9201615,N,12007.1358418,E,4,33,0.5,3.7591,M,7.095,M,0.1,0004*44
$GPGGA,085532.20,3015.9201615,N,12007.1358418,E,4,33,0.5,3.7584,M,7.095,M,0.2,0004*40
$GPGGA,085532.30,3015.9201618,N,12007.1358420,E,4,33,0.5,3.7581,M,7.095,M,0.3,0004*43
$GPGGA,085532.40,3015.9201620,N,12007.1358415,E,4,33,0.5,3.7543,M,7.095,M,0.4,0004*40
$GPGGA,085532.50,3015.9201616,N,12007.1358409,E,4,33,0.5,3.7563,M,7.095,M,0.5,0004*4A
$GPGGA,085532.60,3015.9201612,N,12007.1358414,E,4,33,0.5,3.7570,M,7.095,M,0.6,0004*40
$GPGGA,085532.70,3015.9201613,N,12007.1358414,E,4,33,0.5,3.7552,M,7.095,M,0.7,0004*41
$GPGGA,085532.80,3015.9201612,N,12007.1358418,E,4,33,0.5,3.7587,M,7.095,M,0.8,0004*44
$GPGGA,085532.90,3015.9201615,N,12007.1358417,E,4,33,0.5,3.7572,M,7.095,M,0.9,0004*46
$GPGGA,085533.00,3015.9201616,N,12007.1358413,E,4,33,0.5,3.7563,M,7.095,M,1.0,0004*41
$GPGGA,085533.10,3015.9201616,N,12007.1358418,E,4,33,0.5,3.7536,M,7.095,M,0.1,0004*4B
$GPGGA,085533.20,3015.9201615,N,12007.1358421,E,4,33,0.5,3.7541,M,7.095,M,0.2,0004*42
$GPGGA,085533.30,3015.9201615,N,12007.1358419,E,4,33,0.5,3.7518,M,7.095,M,0.3,0004*45
$GPGGA,085533.40,3015.9201620,N,12007.1358411,E,4,33,0.5,3.7529,M,7.095,M,0.4,0004*49
$GPGGA,085533.50,3015.9201617,N,12007.1358419,E,4,33,0.5,3.7517,M,7.095,M,0.5,0004*48
$GPGGA,085533.60,3015.9201622,N,12007.1358417,E,4,33,0.5,3.7503,M,7.095,M,0.6,0004*45
$GPGGA,085533.70,3015.9201622,N,12007.1358418,E,4,33,0.5,3.7511,M,7.095,M,0.7,0004*49
$GPGGA,085533.80,3015.9201623,N,12007.1358418,E,4,33,0.5,3.7489,M,7.095,M,0.8,0004*48
$GPGGA,085533.90,3015.9201617,N,12007.1358416,E,4,33,0.5,3.7499,M,7.095,M,0.9,0004*40
$GPGGA,085534.00,3015.9201615,N,12007.1358417,E,4,33,0.5,3.7554,M,7.095,M,1.0,0004*45
$GPGGA,085534.10,3015.9201611,N,12007.1358418,E,4,33,0.5,3.7561,M,7.095,M,0.1,0004*49
$GPGGA,085534.20,3015.9201610,N,12007.1358422,E,4,33,0.5,3.7590,M,7.095,M,0.2,0004*4F
$GPGGA,085534.30,3015.9201615,N,12007.1358414,E,4,33,0.5,3.7566,M,7.095,M,0.3,0004*46
$GPGGA,085534.40,3015.9201613,N,12007.1358415,E,4,33,0.5,3.7568,M,7.095,M,0.4,0004*4F
$GPGGA,085534.50,3015.9201617,N,12007.1358413,E,4,33,0.5,3.7559,M,7.095,M,0.5,0004*4F
$GPGGA,085534.60,3015.9201615,N,12007.1358414,E,4,33,0.5,3.7549,M,7.095,M,0.6,0004*4B
$GPGGA,085534.70,3015.9201617,N,12007.1358405,E,4,33,0.5,3.7560,M,7.095,M,0.7,0004*42
$GPGGA,085534.80,3015.9201617,N,12007.1358416,E,4,33,0.5,3.7559,M,7.095,M,0.8,0004*4A
$GPGGA,085534.90,3015.9201613,N,12007.1358409,E,4,33,0.5,3.7570,M,7.095,M,0.9,0004*4B
$GPGGA,085535.00,3015.9201614,N,12007.1358408,E,4,33,0.5,3.7558,M,7.095,M,1.0,0004*47
$GPGGA,085535.10,3015.9201616,N,12007.1358411,E,4,33,0.5,3.7559,M,7.095,M,0.1,0004*4D
$GPGGA,085535.20,3015.9201609,N,12007.1358414,E,4,33,0.5,3.7561,M,7.095,M,0.2,0004*4D
$GPGGA,085535.30,3015.9201615,N,12007.1358404,E,4,33,0.5,3.7547,M,7.095,M,0.3,0004*45
$GPGGA,085535.40,3015.9201610,N,12007.1358405,E,4,33,0.5,3.7547,M,7.095,M,0.4,0004*41
$GPGGA,085535.50,3015.9201609,N,12007.1358409,E,4,33,0.5,3.7567,M,7.095,M,0.5,0004*47
$GPGGA,085535.60,3015.9201613,N,12007.1358404,E,4,33,0.5,3.7570,M,7.095,M,0.6,0004*47
$GPGGA,085535.70,3015.9201614,N,12007.1358410,E,4,33,0.5,3.7565,M,7.095,M,0.7,0004*41
$GPGGA,085535.80,3015.9201611,N,12007.1358408,E,4,33,0.5,3.7555,M,7.095,M,0.8,0004*4E
$GPGGA,085535.90,3015.9201609,N,12007.1358413,E,4,33,0.5,3.7570,M,7.095,M,0.9,0004*4A
$GPGGA,085536.00,3015.9201616,N,12007.1358412,E,4,33,0.5,3.7567,M,7.095,M,1.0,0004*41
$GPGGA,085536.10,3015.9201616,N,12007.1358408,E,4,33,0.5,3.7535,M,7.095,M,0.1,0004*4C
$GPGGA,085536.20,3015.9201616,N,12007.1358409,E,4,33,0.5,3.7506,M,7.095,M,0.2,0004*4D
$GPGGA,085536.30,3015.9201619,N,12007.1358411,E,4,33,0.5,3.7478,M,7.095,M,0.3,0004*43
$GPGGA,085536.40,3015.9201615,N,12007.1358407,E,4,33,0.5,3.7502,M,7.095,M,0.4,0004*44
$GPGGA,085536.50,3015.9201615,N,12007.1358407,E,4,33,0.5,3.7511,M,7.095,M,0.5,0004*46
$GPGGA,085536.60,3015.9201613,N,12007.1358411,E,4,33,0.5,3.7531,M,7.095,M,0.6,0004*45
$GPGGA,085536.70,3015.9201613,N,12007.1358404,E,4,33,0.5,3.7540,M,7.095,M,0.7,0004*47
$GPGGA,085536.80,3015.9201613,N,12007.1358411,E,4,33,0.5,3.7544,M,7.095,M,0.8,0004*47
$GPGGA,085536.90,3015.9201612,N,12007.1358402,E,4,33,0.5,3.7514,M,7.095,M,0.9,0004*41
