$GPGGA,085621.90,3015.9201598,N,12007.1358404,E,4,32,0.5,3.7735,M,7.095,M,0.9,0004*43
$GPGGA,085622.00,3015.9201599,N,12007.1358397,E,4,32,0.5,3.7726,M,7.095,M,1.0,0004*4F
$GPGGA,085622.10,3015.9201600,N,12007.1358390,E,4,32,0.5,3.7664,M,7.095,M,0.1,0004*4D
$GPGGA,085622.20,3015.9201608,N,12007.1358391,E,4,32,0.5,3.7619,M,7.095,M,0.2,0004*4E
$GPGGA,085622.30,3015.9201603,N,12007.1358393,E,4,32,0.5,3.7643,M,7.095,M,0.3,0004*48
$GPGGA,085622.40,3015.9201595,N,12007.1358392,E,4,32,0.5,3.7670,M,7.095,M,0.4,0004*45
$GPGGA,085622.50,3015.9201596,N,12007.1358383,E,4,32,0.5,3.7652,M,7.095,M,0.5,0004*46
$GPGGA,085622.60,3015.9201594,N,12007.1358383,E,4,32,0.5,3.7648,M,7.095,M,0.6,0004*4F
$GPGGA,085622.70,3015.9201598,N,12007.1358384,E,4,32,0.5,3.7630,M,7.095,M,0.7,0004*4B
$GPGGA,085622.80,3015.9201596,N,12007.1358379,E,4,32,0.5,3.7598,M,7.095,M,0.8,0004*46
$GPGGA,085622.90,3015.9201593,N,12007.1358372,E,4,32,0.5,3.7610,M,7.095,M,0.9,0004*4B
$GPGGA,085623.00,3015.9201595,N,12007.1358378,E,4,32,0.5,3.7615,M,7.095,M,1.0,0004*42
$GPGGA,085623.10,3015.9201609,N,12007.1358380,E,4,32,0.5,3.7615,M,7.095,M,0.1,0004*42
$GPGGA,085623.20,3015.9201614,N,12007.1358381,E,4,32,0.5,3.7633,M,7.095,M,0.2,0004*4B
$GPGGA,085623.30,3015.9201618,N,12007.1358389,E,4,32,0.5,3.7613,M,7.095,M,0.3,0004*4D
$GPGGA,085623.40,3015.9201613,N,12007.1358395,E,4,32,0.5,3.7663,M,7.095,M,0.4,0004*4C
$GPGGA,085623.50,3015.9201614,N,12007.1358393,E,4,32,0.5,3.7685,M,7.095,M,0.5,0004*45
$GPGGA,085623.60,3015.9201616,N,12007.1358399,E,4,32,0.5,3.7658,M,7.095,M,0.6,0004*4D
$GPGGA,085623.70,3015.9201613,N,12007.1358398,E,4,32,0.5,3.7690,M,7.095,M,0.7,0004*4D
$GPGGA,085623.80,3015.9201615,N,12007.1358398,E,4,32,0.5,3.7668,M,7.095,M,0.8,0004*4C
$GPGGA,085623.90,3015.9201610,N,12007.1358394,E,4,32,0.5,3.7587,M,7.095,M,0.9,0004*47
$GPGGA,085624.00,3015.9201600,N,12007.1358398,E,4,32,0.5,3.7646,M,7.095,M,1.0,0004*42
$GPGGA,085624.10,3015.9201600,N,12007.1358391,E,4,32,0.5,3.7765,M,7.095,M,0.1,0004*4A
$GPGGA,085624.20,3015.9201609,N,12007.1358397,E,4,32,0.5,3.7757,M,7.095,M,0.2,0004*44
$GPGGA,085624.30,3015.9201598,N,12007.1358404,E,4,32,0.5,3.7805,M,7.095,M,0.3,0004*4A
$GPGGA,085624.40,3015.9201600,N,12007.1358396,E,4,32,0.5,3.7835,M,7.095,M,0.4,0004*47
$GPGGA,085624.50,3015.9201589,N,12007.1358402,E,4,32,0.5,3.7889,M,7.095,M,0.5,0004*48
$GPGGA,085624.60,3015.9201589,N,12007.1358406,E,4,32,0.5,3.7865,M,7.095,M,0.6,0004*4E
$GPGGA,085624.70,3015.9201589,N,12007.1358400,E,4,32,0.5,3.7840,M,7.095,M,0.7,0004*4F
$GPGGA,085624.80,3015.9201585,N,12007.1358400,E,4,32,0.5,3.7876,M,7.095,M,0.8,0004*46
$GPGGA,085624.90,3015.9201579,N,12007.1358398,E,4,32,0.5,3.7872,M,7.095,M,0.9,0004*47
$GPGGA,085625.00,3015.9201582,N,12007.1358394,E,4,32,0.5,3.7845,M,7.095,M,1.0,0004*4B
$GPGGA,085625.10,3015.9201585,N,12007.1358416,E,4,32,0.5,3.7767,M,7.095,M,0.1,0004*4F
$GPGGA,085625.20,3015.9201578,N,12007.1358397,E,4,32,0.5,3.7760,M,7.095,M,0.2,0004*44
$GPGGA,085625.30,3015.9201585,N,12007.1358401,E,4,32,0.5,3.7770,M,7.095,M,0.3,0004*4F
$GPGGA,085625.40,3015.9201584,N,12007.1358401,E,4,32,0.5,3.7764,M,7.095,M,0.4,0004*4B
$GPGGA,085625.50,3015.9201585,N,12007.1358403,E,4,32,0.5,3.7743,M,7.095,M,0.5,0004*4D
$GPGGA,085625.60,3015.9201587,N,12007.1358415,E,4,32,0.5,3.7775,M,7.095,M,0.6,0004*4D
$GPGGA,085625.70,3015.9201587,N,12007.1358422,E,4,32,0.5,3.7773,M,7.095,M,0.7,0004*4F
$GPGGA,085625.80,3015.9201585,N,12007.1358409,E,4,32,0.5,3.7778,M,7.095,M,0.8,0004*4F
$GPGGA,085625.90,3015.9201586,N,12007.1358403,E,4,32,0.5,3.7749,M,7.095,M,0.9,0004*44
$GPGGA,085626.00,3015.9201593,N,12007.1358413,E,4,32,0.5,3.7756,M,7.095,M,1.0,0004*4D
$GPGGA,085626.10,3015.9201588,N,12007.1358414,E,4,32,0.5,3.7720,M,7.095,M,0.1,0004*40
$GPGGA,085626.20,3015.9201590,N,12007.1358426,E,4,32,0.5,3.7726,M,7.095,M,0.2,0004*4E
$GPGGA,085626.30,3015.9201591,N,12007.1358423,E,4,32,0.5,3.7742,M,7.095,M,0.3,0004*48
$GPGGA,085626.40,3015.9201591,N,12007.1358418,E,4,32,0.5,3.7733,M,7.095,M,0.4,0004*46
$GPGGA,085626.50,3015.9201585,N,12007.1358419,E,4,32,0.5,3.7706,M,7.095,M,0.5,0004*44
$GPGGA,085626.60,3015.9201589,N,12007.1358422,E,4,32,0.5,3.7744,M,7.095,M,0.6,0004*46
$GPGGA,085626.70,3015.9201590,N,12007.1358428,E,4,32,0.5,3.7737,M,7.095,M,0.7,0004*40
$GPGGA,085626.80,3015.9201592,N,12007.1358426,E,4,32,0.5,3.7753,M,7.095,M,0.8,0004*4E
$GPGGA,085626.90,3015.9201589,N,12007.1358419,E,4,32,0.5,3.7757,M,7.095,M,0.9,0004*4C
$GPGGA,085627.00,3015.9201592,N,12007.1358424,E,4,32,0.5,3.7739,M,7.095,M,1.0,0004*40
$GPGGA,085627.10,3015.9201592,N,12007.1358411,E,4,32,0.5,3.7733,M,7.095,M,0.1,0004*4D
$GPGGA,085627.20,3015.9201592,N,12007.1358417,E,4,32,0.5,3.7731,M,7.095,M,0.2,0004*49
$GPGGA,085627.30,3015.9201586,N,12007.1358419,E,4,32,0.5,3.7753,M,7.095,M,0.3,0004*46
$GPGGA,085627.40,3015.9201588,N,12007.1358416,E,4,32,0.5,3.7759,M,7.095,M,0.4,0004*4D
$GPGGA,085627.50,3015.9201591,N,12007.1358414,E,4,32,0.5,3.7744,M,7.095,M,0.5,0004*4B
$GPGGA,085627.60,3015.9201587,N,12007.1358413,E,4,32,0.5,3.7746,M,7.095,M,0.6,0004*49
$GPGGA,085627.70,3015.9201591,N,12007.1358414,E,4,31,0.5,3.7744,M,7.095,M,0.7,0004*48
$GPGGA,085627.80,3015.9201590,N,12007.1358418,E,4,31,0.5,3.7734,M,7.095,M,0.8,0004*42
$GPGGA,085627.90,3015.9201590,N,12007.1358411,E,4,31,0.5,3.7734,M,7.095,M,0.9,0004*4B
$GPGGA,085628.00,3015.9201594,N,12007.1358407,E,4,31,0.5,3.7714,M,7.095,M,1.0,0004*44
$GPGGA,085628.10,3015.9201595,N,12007.1358432,E,4,31,0.5,3.7713,M,7.095,M,0.1,0004*45
$GPGGA,085628.20,3015.9201595,N,12007.1358429,E,4,31,0.5,3.7717,M,7.095,M,0.2,0004*4B
$GPGGA,085628.30,3015.9201590,N,12007.1358426,E,4,31,0.5,3.7712,M,7.095,M,0.3,0004*44
$GPGGA,085628.40,3015.9201591,N,12007.1358431,E,4,31,0.5,3.7716,M,7.095,M,0.4,0004*47
$GPGGA,085628.50,3015.9201592,N,12007.1358433,E,4,31,0.5,3.7719,M,7.095,M,0.5,0004*49
$GPGGA,085628.60,3015.9201593,N,12007.1358442,E,4,31,0.5,3.7728,M,7.095,M,0.6,0004*4C
$GPGGA,085628.70,3015.9201591,N,12007.1358445,E,4,31,0.5,3.7731,M,7.095,M,0.7,0004*41
$GPGGA,085628.80,3015.9201587,N,12007.1358447,E,4,31,0.5,3.7767,M,7.095,M,0.8,0004*47
$GPGGA,085628.90,3015.9201584,N,12007.1358442,E,4,31,0.5,3.7771,M,7.095,M,0.9,0004*46
$GPGGA,085629.00,3015.9201585,N,12007.1358450,E,4,31,0.5,3.7776,M,7.095,M,1.0,0004*43
$GPGGA,085629.10,3015.9201601,N,12007.1358429,E,4,31,0.5,3.7690,M,7.095,M,0.1,0004*4A
$GPGGA,085629.20,3015.9201597,N,12007.1358427,E,4,31,0.5,3.7714,M,7.095,M,0.2,0004*45
$GPGGA,085629.30,3015.9201601,N,12007.1358434,E,4,31,0.5,3.7678,M,7.095,M,0.3,0004*40
$GPGGA,085629.40,3015.9201598,N,12007.1358425,E,4,32,0.5,3.7706,M,7.095,M,0.4,0004*48
$GPGGA,085629.50,3015.9201605,N,12007.1358433,E,4,32,0.5,3.7684,M,7.095,M,0.5,0004*43
$GPGGA,085629.60,3015.9201602,N,12007.1358433,E,4,32,0.5,3.7711,M,7.095,M,0.6,0004*49
$GPGGA,085629.70,3015.9201598,N,12007.1358430,E,4,32,0.5,3.7713,M,7.095,M,0.7,0004*48
$GPGGA,085629.80,3015.9201603,N,12007.1358432,E,4,32,0.5,3.7695,M,7.095,M,0.8,0004*44
$GPGGA,085629.90,3015.9201599,N,12007.1358424,E,4,32,0.5,3.7667,M,7.095,M,0.9,0004*4E
$GPGGA,085630.00,3015.9201601,N,12007.1358421,E,4,32,0.5,3.7692,M,7.095,M,1.0,0004*4A
$GPGGA,085630.10,3015.9201599,N,12007.1358430,E,4,32,0.5,3.7717,M,7.095,M,0.1,0004*45
$GPGGA,085630.20,3015.9201597,N,12007.1358433,E,4,32,0.5,3.7727,M,7.095,M,0.2,0004*4B
$GPGGA,085630.30,3015.9201590,N,12007.1358442,E,4,32,0.5,3.7780,M,7.095,M,0.3,0004*47
$GPGGA,085630.40,3015.9201599,N,12007.1358440,E,4,32,0.5,3.7726,M,7.095,M,0.4,0004*40
$GPGGA,085630.50,3015.9201597,N,12007.1358439,E,4,32,0.5,3.7744,M,7.095,M,0.5,0004*44
$GPGGA,085630.60,3015.9201591,N,12007.1358446,E,4,32,0.5,3.7739,M,7.095,M,0.6,0004*40
$GPGGA,085630.70,3015.9201599,N,12007.1358440,E,4,32,0.5,3.7728,M,7.095,M,0.7,0004*4E
$GPGGA,085630.80,3015.9201591,N,12007.1358434,E,4,32,0.5,3.7686,M,7.095,M,0.8,0004*40
$GPGGA,085630.90,3015.9201588,N,12007.1358428,E,4,32,0.5,3.7682,M,7.095,M,0.9,0004*41
$GPGGA,085631.00,3015.9201585,N,12007.1358434,E,4,32,0.5,3.7694,M,7.095,M,1.0,0004*46
$GPGGA,085631.10,3015.9201605,N,12007.1358426,E,4,32,0.5,3.7768,M,7.095,M,0.1,0004*4D
$GPGGA,085631.20,3015.9201602,N,12007.1358429,E,4,32,0.5,3.7774,M,7.095,M,0.2,0004*48
$GPGGA,085631.30,3015.9201599,N,12007.1358422,E,4,32,0.5,3.7784,M,7.095,M,0.3,0004*4D
$GPGGA,085631.40,3015.9201598,N,12007.1358423,E,4,32,0.5,3.7766,M,7.095,M,0.4,0004*41
$GPGGA,085631.50,3015.9201596,N,12007.1358426,E,4,32,0.5,3.7798,M,7.095,M,0.5,0004*4B
$GPGGA,085631.60,3015.9201597,N,12007.1358427,E,4,32,0.5,3.7801,M,7.095,M,0.6,0004*44
$GPGGA,085631.70,3015.9201597,N,12007.1358416,E,4,32,0.5,3.7760,M,7.095,M,0.7,0004*4E
$GPGGA,085631.80,3015.9201600,N,12007.1358422,E,4,32,0.5,3.7752,M,7.095,M,0.8,0004*45
$GPGGA,085631.90,3015.9201596,N,12007.1358417,E,4,32,0.5,3.7739,M,7.095,M,0.9,0004*42
$GPGGA,085632.00,3015.9201596,N,12007.1358426,E,4,32,0.5,3.7800,M,7.095,M,1.0,0004*47
$GPGGA,085632.10,3015.9201606,N,12007.1358428,E,4,32,0.5,3.7730,M,7.095,M,0.1,0004*4E
$GPGGA,085632.20,3015.9201609,N,12007.1358425,E,4,32,0.5,3.7734,M,7.095,M,0.2,0004*48
$GPGGA,085632.30,3015.9201607,N,12007.1358421,E,4,32,0.5,3.7755,M,7.095,M,0.3,0004*45
$GPGGA,085632.40,3015.9201603,N,12007.1358414,E,4,32,0.5,3.7752,M,7.095,M,0.4,0004*40
$GPGGA,085632.50,3015.9201608,N,12007.1358408,E,4,32,0.5,3.7713,M,7.095,M,0.5,0004*43
$GPGGA,085632.60,3015.9201615,N,12007.1358411,E,4,32,0.5,3.7707,M,7.095,M,0.6,0004*42
$GPGGA,085632.70,3015.9201615,N,12007.1358401,E,4,32,0.5,3.7682,M,7.095,M,0.7,0004*4F
$GPGGA,085632.80,3015.9201625,N,12007.1358410,E,4,32,0.5,3.7687,M,7.095,M,0.8,0004*49
$GPGGA,085632.90,3015.9201617,N,12007.1358395,E,4,32,0.5,3.7712,M,7.095,M,0.9,0004*4F
$GPGGA,085633.00,3015.9201619,N,12007.1358403,E,4,32,0.5,3.7700,M,7.095,M,1.0,0004*4A
$GPGGA,085633.10,3015.9201601,N,12007.1358403,E,4,32,0.5,3.7662,M,7.095,M,0.1,0004*47
$GPGGA,085633.20,3015.9201606,N,12007.1358397,E,4,32,0.5,3.7664,M,7.095,M,0.2,0004*4C
$GPGGA,085633.30,3015.9201610,N,12007.1358397,E,4,32,0.5,3.7631,M,7.095,M,0.3,0004*4B
$GPGGA,085633.40,3015.9201611,N,12007.1358400,E,4,32,0.5,3.7664,M,7.095,M,0.4,0004*43
$GPGGA,085633.50,3015.9201612,N,12007.1358403,E,4,32,0.5,3.7684,M,7.095,M,0.5,0004*4D
$GPGGA,085633.60,3015.9201614,N,12007.1358410,E,4,32,0.5,3.7717,M,7.095,M,0.6,0004*42
$GPGGA,085633.70,3015.9201612,N,12007.1358401,E,4,32,0.5,3.7700,M,7.095,M,0.7,0004*42
$GPGGA,085633.80,3015.9201611,N,12007.1358409,E,4,32,0.5,3.7767,M,7.095,M,0.8,0004*48
$GPGGA,085633.90,3015.9201615,N,12007.1358399,E,4,31,0.5,3.7710,M,7.095,M,0.9,0004*41
$GPGGA,085634.00,3015.9201610,N,12007.1358399,E,4,31,0.5,3.7709,M,7.095,M,1.0,0004*4A
$GPGGA,085634.10,3015.9201612,N,12007.1358401,E,4,31,0.5,3.7744,M,7.095,M,0.1,0004*46
$GPGGA,085634.20,3015.9201614,N,12007.1358399,E,4,31,0.5,3.7730,M,7.095,M,0.2,0004*45
$GPGGA,085634.30,3015.9201621,N,12007.1358405,E,4,31,0.5,3.7726,M,7.095,M,0.3,0004*46
$GPGGA,085634.40,3015.9201618,N,12007.1358399,E,4,31,0.5,3.7693,M,7.095,M,0.4,0004*41
$GPGGA,085634.50,3015.9201615,N,12007.1358393,E,4,32,0.5,3.7704,M,7.095,M,0.5,0004*4A
$GPGGA,085634.60,3015.9201611,N,12007.1358395,E,4,32,0.5,3.7702,M,7.095,M,0.6,0004*4E
$GPGGA,085634.70,3015.9201604,N,12007.1358379,E,4,32,0.5,3.7687,M,7.095,M,0.7,0004*44
$GPGGA,085634.80,3015.9201592,N,12007.1358393,E,4,32,0.5,3.7757,M,7.095,M,0.8,0004*40
$GPGGA,085634.90,3015.9201596,N,12007.1358393,E,4,32,0.5,3.7719,M,7.095,M,0.9,0004*4E
$GPGGA,085635.00,3015.9201598,N,12007.1358401,E,4,32,0.5,3.7735,M,7.095,M,1.0,0004*42
$GPGGA,085635.10,3015.9201586,N,12007.1358405,E,4,32,0.5,3.7724,M,7.095,M,0.1,0004*48
$GPGGA,085635.20,3015.9201586,N,12007.1358407,E,4,32,0.5,3.7713,M,7.095,M,0.2,0004*4E
$GPGGA,085635.30,3015.9201589,N,12007.1358404,E,4,32,0.5,3.7688,M,7.095,M,0.3,0004*41
$GPGGA,085635.40,3015.9201590,N,12007.1358397,E,4,32,0.5,3.7668,M,7.095,M,0.4,0004*4A
$GPGGA,085635.50,3015.9201597,N,12007.1358394,E,4,32,0.5,3.7677,M,7.095,M,0.5,0004*40
$GPGGA,085635.60,3015.9201598,N,12007.1358397,E,4,32,0.5,3.7658,M,7.095,M,0.6,0004*41
$GPGGA,085635.70,3015.9201599,N,12007.1358395,E,4,32,0.5,3.7656,M,7.095,M,0.7,0004*4C
$GPGGA,085635.80,3015.9201599,N,12007.1358388,E,4,32,0.5,3.7664,M,7.095,M,0.8,0004*41
$GPGGA,085635.90,3015.9201601,N,12007.1358391,E,4,32,0.5,3.7684,M,7.095,M,0.9,0004*45
$GPGGA,085636.00,3015.9201599,N,12007.1358404,E,4,32,0.5,3.7693,M,7.095,M,1.0,0004*48
$GPGGA,085636.10,3015.9201613,N,12007.1358395,E,4,32,0.5,3.7625,M,7.095,M,0.1,0004*4A
$GPGGA,085636.20,3015.9201615,N,12007.1358387,E,4,32,0.5,3.7658,M,7.095,M,0.2,0004*45
$GPGGA,085636.30,3015.9201617,N,12007.1358390,E,4,32,0.5,3.7673,M,7.095,M,0.3,0004*48
$GPGGA,085636.40,3015.9201611,N,12007.1358400,E,4,32,0.5,3.7688,M,7.095,M,0.4,0004*44
$GPGGA,085636.50,3015.9201613,N,12007.1358397,E,4,32,0.5,3.7663,M,7.095,M,0.5,0004*4A
$GPGGA,085636.60,3015.9201623,N,12007.1358398,E,4,32,0.5,3.7639,M,7.095,M,0.6,0004*49
$GPGGA,085636.70,3015.9201611,N,12007.1358391,E,4,32,0.5,3.7700,M,7.095,M,0.7,0004*4A
$GPGGA,085636.80,3015.9201617,N,12007.1358398,E,4,32,0.5,3.7657,M,7.095,M,0.8,0004*46
$GPGGA,085636.90,3015.9201615,N,12007.1358392,E,4,32,0.5,3.7658,M,7.095,M,0.9,0004*41
$GPGGA,085637.00,3015.9201615,N,12007.1358386,E,4,32,0.5,3.7668,M,7.095,M,1.0,0004*47
$GPGGA,085637.10,3015.9201609,N,12007.1358392,E,4,32,0.5,3.7588,M,7.095,M,0.1,0004*43
$GPGGA,085637.20,3015.9201607,N,12007.1358400,E,4,31,0.5,3.7641,M,7.095,M,0.2,0004*44
$GPGGA,085637.30,3015.9201614,N,12007.1358404,E,4,31,0.5,3.7633,M,7.095,M,0.3,0004*47
$GPGGA,085637.40,3015.9201615,N,12007.1358410,E,4,31,0.5,3.7655,M,7.095,M,0.4,0004*43
$GPGGA,085637.50,3015.9201605,N,12007.1358404,E,4,31,0.5,3.7678,M,7.095,M,0.5,0004*48
$GPGGA,085637.60,3015.9201607,N,12007.1358410,E,4,31,0.5,3.7713,M,7.095,M,0.6,0004*43
$GPGGA,085637.70,3015.9201610,N,12007.1358420,E,4,31,0.5,3.7737,M,7.095,M,0.7,0004*40
$GPGGA,085637.80,3015.9201613,N,12007.1358430,E,4,31,0.5,3.7757,M,7.095,M,0.8,0004*44
$GPGGA,085637.90,3015.9201617,N,12007.1358427,E,4,31,0.5,3.7756,M,7.095,M,0.9,0004*47
$GPGGA,085638.00,3015.9201615,N,12007.1358426,E,4,31,0.5,3.7777,M,7.095,M,1.0,0004*49
$GPGGA,085638.10,3015.9201618,N,12007.1358425,E,4,31,0.5,3.7696,M,7.095,M,0.1,0004*48
$GPGGA,085638.20,3015.9201614,N,12007.1358413,E,4,30,0.5,3.7688,M,7.095,M,0.2,0004*4F
$GPGGA,085638.30,3015.9201613,N,12007.1358428,E,4,30,0.5,3.7700,M,7.095,M,0.3,0004*41
$GPGGA,085638.40,3015.9201618,N,12007.1358433,E,4,30,0.5,3.7684,M,7.095,M,0.4,0004*4D
$GPGGA,085638.50,3015.9201618,N,12007.1358441,E,4,30,0.5,3.7700,M,7.095,M,0.5,0004*45
$GPGGA,085638.60,3015.9201623,N,12007.1358437,E,4,30,0.5,3.7725,M,7.095,M,0.6,0004*4B
$GPGGA,085638.70,3015.9201626,N,12007.1358430,E,4,30,0.5,3.7653,M,7.095,M,0.7,0004*49
$GPGGA,085638.80,3015.9201627,N,12007.1358447,E,4,30,0.5,3.7655,M,7.095,M,0.8,0004*4E
$GPGGA,085638.90,3015.9201623,N,12007.1358433,E,4,30,0.5,3.7602,M,7.095,M,0.9,0004*4B
$GPGGA,085639.00,3015.9201616,N,12007.1358432,E,4,30,0.5,3.7631,M,7.095,M,1.0,0004*4C
$GPGGA,085639.10,3015.9201614,N,12007.1358422,E,4,30,0.5,3.7700,M,7.095,M,0.1,0004*4D
$GPGGA,085639.20,3015.9201618,N,12007.1358426,E,4,30,0.5,3.7701,M,7.095,M,0.2,0004*44
$GPGGA,085639.30,3015.9201618,N,12007.1358417,E,4,30,0.5,3.7657,M,7.095,M,0.3,0004*44
$GPGGA,085639.40,3015.9201614,N,12007.1358427,E,4,30,0.5,3.7694,M,7.095,M,0.4,0004*44
$GPGGA,085639.50,3015.9201614,N,12007.1358437,E,4,30,0.5,3.7711,M,7.095,M,0.5,0004*49
$GPGGA,085639.60,3015.9201620,N,12007.1358438,E,4,30,0.5,3.7691,M,7.095,M,0.6,0004*48
$GPGGA,085639.70,3015.9201622,N,12007.1358420,E,4,30,0.5,3.7671,M,7.095,M,0.7,0004*4D
$GPGGA,085639.80,3015.9201619,N,12007.1358424,E,4,30,0.5,3.7689,M,7.095,M,0.8,0004*46
$GPGGA,085639.90,3015.9201620,N,12007.1358418,E,4,30,0.5,3.7669,M,7.095,M,0.9,0004*4D
$GPGGA,085640.00,3015.9201622,N,12007.1358417,E,4,30,0.5,3.7697,M,7.095,M,1.0,0004*4E
$GPGGA,085640.10,3015.9201608,N,12007.1358383,E,4,30,0.5,3.7616,M,7.095,M,0.1,0004*44
$GPGGA,085640.20,3015.9201608,N,12007.1358387,E,4,30,0.5,3.7601,M,7.095,M,0.2,0004*46
$GPGGA,085640.30,3015.9201610,N,12007.1358395,E,4,30,0.5,3.7584,M,7.095,M,0.3,0004*42
$GPGGA,085640.40,3015.9201602,N,12007.1358401,E,4,30,0.5,3.7616,M,7.095,M,0.4,0004*43
$GPGGA,085640.50,3015.9201608,N,12007.1358409,E,4,31,0.5,3.7659,M,7.095,M,0.5,0004*4B
$GPGGA,085640.60,3015.9201606,N,12007.1358416,E,4,31,0.5,3.7660,M,7.095,M,0.6,0004*41
$GPGGA,085640.70,3015.9201608,N,12007.1358396,E,4,31,0.5,3.7604,M,7.095,M,0.7,0004*42
$GPGGA,085640.80,3015.9201610,N,12007.1358410,E,4,31,0.5,3.7767,M,7.095,M,0.8,0004*46
$GPGGA,085640.90,3015.9201611,N,12007.1358405,E,4,31,0.5,3.7694,M,7.095,M,0.9,0004*4E
$GPGGA,085641.00,3015.9201606,N,12007.1358420,E,4,31,0.5,3.7735,M,7.095,M,1.0,0004*45
$GPGGA,085641.10,3015.9201625,N,12007.1358409,E,4,31,0.5,3.7688,M,7.095,M,0.1,0004*49
$GPGGA,085641.20,3015.9201623,N,12007.1358407,E,4,31,0.5,3.7709,M,7.095,M,0.2,0004*49
$GPGGA,085641.30,3015.9201622,N,12007.1358411,E,4,31,0.5,3.7720,M,7.095,M,0.3,0004*44
$GPGGA,085641.40,3015.9201632,N,12007.1358409,E,4,31,0.5,3.7677,M,7.095,M,0.4,0004*4F
$GPGGA,085641.50,3015.9201622,N,12007.1358408,E,4,31,0.5,3.7694,M,7.095,M,0.5,0004*42
$GPGGA,085641.60,3015.9201625,N,12007.1358418,E,4,31,0.5,3.7737,M,7.095,M,0.6,0004*4C
$GPGGA,085641.70,3015.9201627,N,12007.1358425,E,4,31,0.5,3.7672,M,7.095,M,0.7,0004*40
$GPGGA,085641.80,3015.9201626,N,12007.1358423,E,4,31,0.5,3.7686,M,7.095,M,0.8,0004*4C
$GPGGA,085641.90,3015.9201620,N,12007.1358424,E,4,31,0.5,3.7740,M,7.095,M,0.9,0004*46
$GPGGA,085642.00,3015.9201617,N,12007.1358420,E,4,31,0.5,3.7745,M,7.095,M,1.0,0004*41
$GPGGA,085642.10,3015.9201604,N,12007.1358425,E,4,31,0.5,3.7762,M,7.095,M,0.1,0004*42
$GPGGA,085642.20,3015.9201614,N,12007.1358430,E,4,31,0.5,3.7828,M,7.095,M,0.2,0004*46
$GPGGA,085642.30,3015.9201623,N,12007.1358451,E,4,31,0.5,3.7866,M,7.095,M,0.3,0004*4F
$GPGGA,085642.40,3015.9201621,N,12007.1358449,E,4,30,0.5,3.7849,M,7.095,M,0.4,0004*48
$GPGGA,085642.50,3015.9201608,N,12007.1358461,E,4,31,0.5,3.7906,M,7.095,M,0.5,0004*42
$GPGGA,085642.60,3015.9201595,N,12007.1358436,E,4,31,0.5,3.7825,M,7.095,M,0.6,0004*47
$GPGGA,085642.70,3015.9201586,N,12007.1358419,E,4,31,0.5,3.7786,M,7.095,M,0.7,0004*4E
$GPGGA,085642.80,3015.9201606,N,12007.1358450,E,4,31,0.5,3.7961,M,7.095,M,0.8,0004*4F
$GPGGA,085642.90,3015.9201623,N,12007.1358462,E,4,31,0.5,3.7849,M,7.095,M,0.9,0004*42
$GPGGA,085643.00,3015.9201620,N,12007.1358449,E,4,31,0.5,3.7870,M,7.095,M,1.0,0004*42
$GPGGA,085643.10,3015.9201628,N,12007.1358439,E,4,31,0.5,3.7873,M,7.095,M,0.1,0004*4F
$GPGGA,085643.20,3015.9201627,N,12007.1358436,E,4,31,0.5,3.7841,M,7.095,M,0.2,0004*4E
$GPGGA,085643.30,3015.9201637,N,12007.1358432,E,4,31,0.5,3.7798,M,7.095,M,0.3,0004*40
$GPGGA,085643.40,3015.9201646,N,12007.1358444,E,4,31,0.5,3.7775,M,7.095,M,0.4,0004*44
$GPGGA,085643.50,3015.9201646,N,12007.1358453,E,4,31,0.5,3.7785,M,7.095,M,0.5,0004*4D
$GPGGA,085643.60,3015.9201636,N,12007.1358440,E,4,31,0.5,3.7830,M,7.095,M,0.6,0004*49
$GPGGA,085643.70,3015.9201641,N,12007.1358438,E,4,31,0.5,3.7803,M,7.095,M,0.7,0004*46
$GPGGA,085643.80,3015.9201643,N,12007.1358443,E,4,31,0.5,3.7832,M,7.095,M,0.8,0004*4A
$GPGGA,085643.90,3015.9201635,N,12007.1358448,E,4,31,0.5,3.7884,M,7.095,M,0.9,0004*4D
$GPGGA,085644.00,3015.9201637,N,12007.1358438,E,4,31,0.5,3.7871,M,7.095,M,1.0,0004*44
$GPGGA,085644.10,3015.9201633,N,12007.1358482,E,4,31,0.5,3.7841,M,7.095,M,0.1,0004*43
$GPGGA,085644.20,3015.9201629,N,12007.1358468,E,4,31,0.5,3.7803,M,7.095,M,0.2,0004*4A
$GPGGA,085644.30,3015.9201630,N,12007.1358473,E,4,31,0.5,3.7831,M,7.095,M,0.3,0004*49
$GPGGA,085644.40,3015.9201630,N,12007.1358472,E,4,31,0.5,3.7848,M,7.095,M,0.4,0004*46
$GPGGA,085644.50,3015.9201609,N,12007.1358478,E,4,31,0.5,3.7918,M,7.095,M,0.5,0004*42
$GPGGA,085644.60,3015.9201610,N,12007.1358468,E,4,31,0.5,3.7914,M,7.095,M,0.6,0004*47
$GPGGA,085644.70,3015.9201602,N,12007.1358462,E,4,31,0.5,3.7930,M,7.095,M,0.7,0004*48
$GPGGA,085644.80,3015.9201605,N,12007.1358470,E,4,31,0.5,3.7875,M,7.095,M,0.8,0004*4C
$GPGGA,085644.90,3015.9201610,N,12007.1358451,E,4,31,0.5,3.7917,M,7.095,M,0.9,0004*4E
$GPGGA,085645.00,3015.9201587,N,12007.1358476,E,4,31,0.5,3.7977,M,7.095,M,1.0,0004*40
$GPGGA,085645.10,3015.9201595,N,12007.1358425,E,4,31,0.5,3.7944,M,7.095,M,0.1,0004*44
$GPGGA,085645.20,3015.9201591,N,12007.1358389,E,4,31,0.5,3.7826,M,7.095,M,0.2,0004*44
$GPGGA,085645.30,3015.9201608,N,12007.1358410,E,4,31,0.5,3.7686,M,7.095,M,0.3,0004*44
$GPGGA,085645.40,3015.9201589,N,12007.1358393,E,4,31,0.5,3.7779,M,7.095,M,0.4,0004*43
$GPGGA,085645.50,3015.9201596,N,12007.1358408,E,4,31,0.5,3.7723,M,7.095,M,0.5,0004*47
$GPGGA,085645.60,3015.9201595,N,12007.1358403,E,4,30,0.5,3.7734,M,7.095,M,0.6,0004*48
$GPGGA,085645.70,3015.9201601,N,12007.1358406,E,4,31,0.5,3.7705,M,7.095,M,0.7,0004*40
$GPGGA,085645.80,3015.9201606,N,12007.1358402,E,4,31,0.5,3.7728,M,7.095,M,0.8,0004*4C
$GPGGA,085645.90,3015.9201598,N,12007.1358404,E,4,31,0.5,3.7766,M,7.095,M,0.9,0004*44
$GPGGA,085646.00,3015.9201598,N,12007.1358409,E,4,31,0.5,3.7775,M,7.095,M,1.0,0004*49
$GPGGA,085646.10,3015.9201600,N,12007.1358382,E,4,32,0.5,3.7775,M,7.095,M,0.1,0004*4D
$GPGGA,085646.20,3015.9201601,N,12007.1358380,E,4,32,0.5,3.7718,M,7.095,M,0.2,0004*45
$GPGGA,085646.30,3015.9201605,N,12007.1358389,E,4,32,0.5,3.7759,M,7.095,M,0.3,0004*4D
$GPGGA,085646.40,3015.9201601,N,12007.1358385,E,4,31,0.5,3.7762,M,7.095,M,0.4,0004*4E
$GPGGA,085646.50,3015.9201605,N,12007.1358394,E,4,31,0.5,3.7761,M,7.095,M,0.5,0004*49
$GPGGA,085646.60,3015.9201603,N,12007.1358391,E,4,31,0.5,3.7792,M,7.095,M,0.6,0004*46
$GPGGA,085646.70,3015.9201604,N,12007.1358388,E,4,31,0.5,3.7767,M,7.095,M,0.7,0004*43
$GPGGA,085646.80,3015.9201608,N,12007.1358400,E,4,31,0.5,3.7827,M,7.095,M,0.8,0004*43
$GPGGA,085646.90,3015.9201606,N,12007.1358407,E,4,31,0.5,3.7826,M,7.095,M,0.9,0004*4B
$GPGGA,085647.00,3015.9201607,N,12007.1358396,E,4,30,0.5,3.7818,M,7.095,M,1.0,0004*49
$GPGGA,085647.10,3015.9201606,N,12007.1358401,E,4,30,0.5,3.7776,M,7.095,M,0.1,0004*47
$GPGGA,085647.20,3015.9201608,N,12007.1358392,E,4,30,0.5,3.7790,M,7.095,M,0.2,0004*4C
$GPGGA,085647.30,3015.9201603,N,12007.1358380,E,4,30,0.5,3.7750,M,7.095,M,0.3,0004*48
$GPGGA,085647.40,3015.9201597,N,12007.1358389,E,4,30,0.5,3.7773,M,7.095,M,0.4,0004*4E
$GPGGA,085647.50,3015.9201600,N,12007.1358417,E,4,30,0.5,3.7864,M,7.095,M,0.5,0004*4A
$GPGGA,085647.60,3015.9201603,N,12007.1358437,E,4,29,0.5,3.7888,M,7.095,M,0.6,0004*41
$GPGGA,085647.70,3015.9201604,N,12007.1358421,E,4,30,0.5,3.7848,M,7.095,M,0.7,0004*45
$GPGGA,085647.80,3015.9201614,N,12007.1358422,E,4,30,0.5,3.7809,M,7.095,M,0.8,0004*42
$GPGGA,085647.90,3015.9201609,N,12007.1358428,E,4,30,0.5,3.7823,M,7.095,M,0.9,0004*4C
$GPGGA,085648.00,3015.9201611,N,12007.1358423,E,4,31,0.5,3.7811,M,7.095,M,1.0,0004*40
$GPGGA,085648.10,3015.9201602,N,12007.1358417,E,4,31,0.5,3.7889,M,7.095,M,0.1,0004*45
$GPGGA,085648.20,3015.9201601,N,12007.1358411,E,4,31,0.5,3.7894,M,7.095,M,0.2,0004*4C
$GPGGA,085648.30,3015.9201606,N,12007.1358422,E,4,31,0.5,3.7890,M,7.095,M,0.3,0004*4F
$GPGGA,085648.40,3015.9201600,N,12007.1358417,E,4,31,0.5,3.7903,M,7.095,M,0.4,0004*44
$GPGGA,085648.50,3015.9201600,N,12007.1358413,E,4,31,0.5,3.7894,M,7.095,M,0.5,0004*4F
$GPGGA,085648.60,3015.9201597,N,12007.1358429,E,4,31,0.5,3.7947,M,7.095,M,0.6,0004*44
$GPGGA,085648.70,3015.9201606,N,12007.1358432,E,4,31,0.5,3.7942,M,7.095,M,0.7,0004*40
$GPGGA,085648.80,3015.9201600,N,12007.1358427,E,4,31,0.5,3.7930,M,7.095,M,0.8,0004*47
$GPGGA,085648.90,3015.9201602,N,12007.1358434,E,4,31,0.5,3.7939,M,7.095,M,0.9,0004*4E
$GPGGA,085649.00,3015.9201599,N,12007.1358436,E,4,31,0.5,3.7948,M,7.095,M,1.0,0004*4B
$GPGGA,085649.10,3015.9201603,N,12007.1358434,E,4,31,0.5,3.7943,M,7.095,M,0.1,0004*43
$GPGGA,085649.20,3015.9201598,N,12007.1358430,E,4,31,0.5,3.7924,M,7.095,M,0.2,0004*47
$GPGGA,085649.30,3015.9201596,N,12007.1358435,E,4,31,0.5,3.7960,M,7.095,M,0.3,0004*4C
$GPGGA,085649.40,3015.9201593,N,12007.1358431,E,4,31,0.5,3.7992,M,7.095,M,0.4,0004*40
$GPGGA,085649.50,3015.9201592,N,12007.1358438,E,4,31,0.5,3.8002,M,7.095,M,0.5,0004*47
$GPGGA,085649.60,3015.9201595,N,12007.1358440,E,4,31,0.5,3.8005,M,7.095,M,0.6,0004*48
$GPGGA,085649.70,3015.9201594,N,12007.1358443,E,4,31,0.5,3.8031,M,7.095,M,0.7,0004*4D
$GPGGA,085649.80,3015.9201594,N,12007.1358443,E,4,30,0.5,3.7997,M,7.095,M,0.8,0004*46
$GPGGA,085649.90,3015.9201589,N,12007.1358444,E,4,31,0.5,3.7995,M,7.095,M,0.9,0004*4E
$GPGGA,085650.00,3015.9201591,N,12007.1358448,E,4,31,0.5,3.8008,M,7.095,M,1.0,0004*40
$GPGGA,085650.10,3015.9201599,N,12007.1358488,E,4,30,0.5,3.7999,M,7.095,M,0.1,0004*4A
$GPGGA,085650.20,3015.9201605,N,12007.1358485,E,4,30,0.5,3.8014,M,7.095,M,0.2,0004*42
$GPGGA,085650.30,3015.9201600,N,12007.1358474,E,4,30,0.5,3.8034,M,7.095,M,0.3,0004*4B
$GPGGA,085650.40,3015.9201599,N,12007.1358466,E,4,30,0.5,3.7994,M,7.095,M,0.4,0004*47
$GPGGA,085650.50,3015.9201602,N,12007.1358469,E,4,30,0.5,3.7967,M,7.095,M,0.5,0004*45
$GPGGA,085650.60,3015.9201608,N,12007.1358476,E,4,30,0.5,3.7976,M,7.095,M,0.6,0004*41
$GPGGA,085650.70,3015.9201604,N,12007.1358484,E,4,30,0.5,3.8018,M,7.095,M,0.7,0004*4E
$GPGGA,085650.80,3015.9201598,N,12007.1358491,E,4,30,0.5,3.8044,M,7.095,M,0.8,0004*45
$GPGGA,085650.90,3015.9201597,N,12007.1358479,E,4,30,0.5,3.8003,M,7.095,M,0.9,0004*4F
$GPGGA,085651.00,3015.9201596,N,12007.1358473,E,4,29,0.5,3.7966,M,7.095,M,1.0,0004*49
$GPGGA,085651.10,3015.9201590,N,12007.1358449,E,4,29,0.5,3.7968,M,7.095,M,0.1,0004*49
$GPGGA,085651.20,3015.9201600,N,12007.1358415,E,4,30,0.5,3.7867,M,7.095,M,0.2,0004*4C
$GPGGA,085651.30,3015.9201587,N,12007.1358432,E,4,30,0.5,3.7945,M,7.095,M,0.3,0004*44
$GPGGA,085651.40,3015.9201590,N,12007.1358420,E,4,30,0.5,3.7831,M,7.095,M,0.4,0004*43
$GPGGA,085651.50,3015.9201593,N,12007.1358423,E,4,30,0.5,3.7834,M,7.095,M,0.5,0004*46
$GPGGA,085651.60,3015.9201591,N,12007.1358421,E,4,30,0.5,3.7816,M,7.095,M,0.6,0004*46
$GPGGA,085651.70,3015.9201586,N,12007.1358421,E,4,30,0.5,3.7855,M,7.095,M,0.7,0004*47
$GPGGA,085651.80,3015.9201589,N,12007.1358425,E,4,30,0.5,3.7870,M,7.095,M,0.8,0004*4B
$GPGGA,085651.90,3015.9201581,N,12007.1358420,E,4,31,0.5,3.7910,M,7.095,M,0.9,0004*40
$GPGGA,085652.00,3015.9201579,N,12007.1358428,E,4,31,0.5,3.7948,M,7.095,M,1.0,0004*40
$GPGGA,085652.10,3015.9201578,N,12007.1358407,E,4,31,0.5,3.7851,M,7.095,M,0.1,0004*44
$GPGGA,085652.20,3015.9201576,N,12007.1358410,E,4,31,0.5,3.7855,M,7.095,M,0.2,0004*48
$GPGGA,085652.30,3015.9201571,N,12007.1358400,E,4,30,0.5,3.7877,M,7.095,M,0.3,0004*4F
$GPGGA,085652.40,3015.9201568,N,12007.1358402,E,4,30,0.5,3.7852,M,7.095,M,0.4,0004*42
$GPGGA,085652.50,3015.9201574,N,12007.1358404,E,4,30,0.5,3.7842,M,7.095,M,0.5,0004*48
$GPGGA,085652.60,3015.9201572,N,12007.1358405,E,4,30,0.5,3.7839,M,7.095,M,0.6,0004*43
$GPGGA,085652.70,3015.9201570,N,12007.1358404,E,4,30,0.5,3.7814,M,7.095,M,0.7,0004*4F
$GPGGA,085652.80,3015.9201566,N,12007.1358402,E,4,30,0.5,3.7852,M,7.095,M,0.8,0004*4C
$GPGGA,085652.90,3015.9201570,N,12007.1358413,E,4,30,0.5,3.7836,M,7.095,M,0.9,0004*49
$GPGGA,085653.00,3015.9201579,N,12007.1358415,E,4,31,0.5,3.7806,M,7.095,M,1.0,0004*44
$GPGGA,085653.10,3015.9201584,N,12007.1358418,E,4,31,0.5,3.7772,M,7.095,M,0.1,0004*46
$GPGGA,085653.20,3015.9201588,N,12007.1358420,E,4,31,0.5,3.7764,M,7.095,M,0.2,0004*46
$GPGGA,085653.30,3015.9201583,N,12007.1358425,E,4,31,0.5,3.7759,M,7.095,M,0.3,0004*46
$GPGGA,085653.40,3015.9201592,N,12007.1358427,E,4,31,0.5,3.7738,M,7.095,M,0.4,0004*43
$GPGGA,085653.50,3015.9201593,N,12007.1358434,E,4,31,0.5,3.7780,M,7.095,M,0.5,0004*43
$GPGGA,085653.60,3015.9201593,N,12007.1358429,E,4,31,0.5,3.7792,M,7.095,M,0.6,0004*4C
$GPGGA,085653.70,3015.9201594,N,12007.1358421,E,4,31,0.5,3.7803,M,7.095,M,0.7,0004*44
$GPGGA,085653.80,3015.9201592,N,12007.1358408,E,4,31,0.5,3.7798,M,7.095,M,0.8,0004*44
$GPGGA,085653.90,3015.9201583,N,12007.1358406,E,4,31,0.5,3.7814,M,7.095,M,0.9,0004*41
$GPGGA,085654.00,3015.9201576,N,12007.1358414,E,4,31,0.5,3.7888,M,7.095,M,1.0,0004*4B
$GPGGA,085654.10,3015.9201583,N,12007.1358416,E,4,31,0.5,3.7903,M,7.095,M,0.1,0004*40
$GPGGA,085654.20,3015.9201582,N,12007.1358418,E,4,31,0.5,3.7910,M,7.095,M,0.2,0004*4D
$GPGGA,085654.30,3015.9201584,N,12007.1358423,E,4,31,0.5,3.7925,M,7.095,M,0.3,0004*45
$GPGGA,085654.40,3015.9201591,N,12007.1358406,E,4,31,0.5,3.7895,M,7.095,M,0.4,0004*4C
$GPGGA,085654.50,3015.9201584,N,12007.1358412,E,4,31,0.5,3.7894,M,7.095,M,0.5,0004*4C
$GPGGA,085654.60,3015.9201590,N,12007.1358406,E,4,30,0.5,3.7857,M,7.095,M,0.6,0004*42
$GPGGA,085654.70,3015.9201593,N,12007.1358404,E,4,30,0.5,3.7836,M,7.095,M,0.7,0004*44
$GPGGA,085654.80,3015.9201589,N,12007.1358400,E,4,30,0.5,3.7862,M,7.095,M,0.8,0004*4A
$GPGGA,085654.90,3015.9201576,N,12007.1358398,E,4,30,0.5,3.7890,M,7.095,M,0.9,0004*41
$GPGGA,085655.00,3015.9201589,N,12007.1358412,E,4,30,0.5,3.7886,M,7.095,M,1.0,0004*43
$GPGGA,085655.10,3015.9201589,N,12007.1358415,E,4,30,0.5,3.7861,M,7.095,M,0.1,0004*4C
$GPGGA,085655.20,3015.9201586,N,12007.1358414,E,4,30,0.5,3.7878,M,7.095,M,0.2,0004*4A
$GPGGA,085655.30,3015.9201580,N,12007.1358409,E,4,30,0.5,3.7883,M,7.095,M,0.3,0004*44
$GPGGA,085655.40,3015.9201579,N,12007.1358418,E,4,30,0.5,3.7895,M,7.095,M,0.4,0004*45
$GPGGA,085655.50,3015.9201578,N,12007.1358421,E,4,30,0.5,3.7930,M,7.095,M,0.5,0004*40
$GPGGA,085655.60,3015.9201579,N,12007.1358415,E,4,30,0.5,3.7920,M,7.095,M,0.6,0004*47
$GPGGA,085655.70,3015.9201582,N,12007.1358428,E,4,30,0.5,3.7953,M,7.095,M,0.7,0004*49
$GPGGA,085655.80,3015.9201582,N,12007.1358424,E,4,30,0.5,3.7939,M,7.095,M,0.8,0004*49
$GPGGA,085655.90,3015.9201579,N,12007.1358422,E,4,30,0.5,3.7970,M,7.095,M,0.9,0004*46
$GPGGA,085656.00,3015.9201580,N,12007.1358422,E,4,30,0.5,3.7935,M,7.095,M,1.0,0004*43
$GPGGA,085656.10,3015.9201579,N,12007.1358391,E,4,30,0.5,3.7857,M,7.095,M,0.1,0004*4E
$GPGGA,085656.20,3015.9201580,N,12007.1358393,E,4,30,0.5,3.7859,M,7.095,M,0.2,0004*44
$GPGGA,085656.30,3015.9201583,N,12007.1358398,E,4,30,0.5,3.7870,M,7.095,M,0.3,0004*47
$GPGGA,085656.40,3015.9201584,N,12007.1358404,E,4,31,0.5,3.7887,M,7.095,M,0.4,0004*4B
$GPGGA,085656.50,3015.9201578,N,12007.1358397,E,4,31,0.5,3.7874,M,7.095,M,0.5,0004*49
$GPGGA,085656.60,3015.9201576,N,12007.1358387,E,4,31,0.5,3.7858,M,7.095,M,0.6,0004*48
$GPGGA,085656.70,3015.9201577,N,12007.1358390,E,4,31,0.5,3.7874,M,7.095,M,0.7,0004*41
$GPGGA,085656.80,3015.9201582,N,12007.1358392,E,4,31,0.5,3.7878,M,7.095,M,0.8,0004*45
$GPGGA,085656.90,3015.9201578,N,12007.1358398,E,4,31,0.5,3.7928,M,7.095,M,0.9,0004*4E
$GPGGA,085657.00,3015.9201581,N,12007.1358383,E,4,31,0.5,3.7849,M,7.095,M,1.0,0004*44
$GPGGA,085657.10,3015.9201581,N,12007.1358377,E,4,31,0.5,3.7848,M,7.095,M,0.1,0004*4F
$GPGGA,085657.20,3015.9201583,N,12007.1358393,E,4,30,0.5,3.7839,M,7.095,M,0.2,0004*40
$GPGGA,085657.30,3015.9201578,N,12007.1358382,E,4,30,0.5,3.7839,M,7.095,M,0.3,0004*44
$GPGGA,085657.40,3015.9201584,N,12007.1358381,E,4,30,0.5,3.7832,M,7.095,M,0.4,0004*4F
$GPGGA,085657.50,3015.9201584,N,12007.1358373,E,4,30,0.5,3.7856,M,7.095,M,0.5,0004*40
$GPGGA,085657.60,3015.9201579,N,12007.1358380,E,4,30,0.5,3.7887,M,7.095,M,0.6,0004*42
$GPGGA,085657.70,3015.9201585,N,12007.1358376,E,4,30,0.5,3.7868,M,7.095,M,0.7,0004*49
$GPGGA,085657.80,3015.9201585,N,12007.1358391,E,4,30,0.5,3.7867,M,7.095,M,0.8,0004*4F
$GPGGA,085657.90,3015.9201583,N,12007.1358384,E,4,30,0.5,3.7877,M,7.095,M,0.9,0004*4C
$GPGGA,085658.00,3015.9201585,N,12007.1358384,E,4,30,0.5,3.7852,M,7.095,M,1.0,0004*43
$GPGGA,085658.10,3015.9201584,N,12007.1358389,E,4,30,0.5,3.7807,M,7.095,M,0.1,0004*4E
$GPGGA,085658.20,3015.9201583,N,12007.1358401,E,4,30,0.5,3.7834,M,7.095,M,0.2,0004*4E
$GPGGA,085658.30,3015.9201584,N,12007.1358392,E,4,30,0.5,3.7833,M,7.095,M,0.3,0004*43
$GPGGA,085658.40,3015.9201580,N,12007.1358399,E,4,30,0.5,3.7842,M,7.095,M,0.4,0004*4A
$GPGGA,085658.50,3015.9201582,N,12007.1358391,E,4,31,0.5,3.7815,M,7.095,M,0.5,0004*43
$GPGGA,085658.60,3015.9201575,N,12007.1358395,E,4,31,0.5,3.7858,M,7.095,M,0.6,0004*46
$GPGGA,085658.70,3015.9201579,N,12007.1358398,E,4,31,0.5,3.7854,M,7.095,M,0.7,0004*4B
$GPGGA,085658.80,3015.9201576,N,12007.1358402,E,4,31,0.5,3.7878,M,7.095,M,0.8,0004*4E
$GPGGA,085658.90,3015.9201580,N,12007.1358395,E,4,31,0.5,3.7859,M,7.095,M,0.9,0004*4D
$GPGGA,085659.00,3015.9201580,N,12007.1358397,E,4,31,0.5,3.7865,M,7.095,M,1.0,0004*40
$GPGGA,085659.10,3015.9201581,N,12007.1358381,E,4,30,0.5,3.7815,M,7.095,M,0.1,0004*41
$GPGGA,085659.20,3015.9201589,N,12007.1358403,E,4,30,0.5,3.7907,M,7.095,M,0.2,0004*46
$GPGGA,085659.30,3015.9201599,N,12007.1358430,E,4,30,0.5,3.7910,M,7.095,M,0.3,0004*41
$GPGGA,085659.40,3015.9201591,N,12007.1358417,E,4,30,0.5,3.7928,M,7.095,M,0.4,0004*47
$GPGGA,085659.50,3015.9201598,N,12007.1358426,E,4,30,0.5,3.7896,M,7.095,M,0.5,0004*48
$GPGGA,085659.60,3015.9201598,N,12007.1358435,E,4,30,0.5,3.7940,M,7.095,M,0.6,0004*40
$GPGGA,085659.70,3015.9201606,N,12007.1358428,E,4,30,0.5,3.7886,M,7.095,M,0.7,0004*43
$GPGGA,085659.80,3015.9201604,N,12007.1358426,E,4,30,0.5,3.7873,M,7.095,M,0.8,0004*45
$GPGGA,085659.90,3015.9201603,N,12007.1358444,E,4,31,0.5,3.7894,M,7.095,M,0.9,0004*4E
$GPGGA,085700.00,3015.9201606,N,12007.1358437,E,4,31,0.5,3.7895,M,7.095,M,1.0,0004*42
$GPGGA,085700.10,3015.9201614,N,12007.1358444,E,4,31,0.5,3.7933,M,7.095,M,0.1,0004*49
$GPGGA,085700.20,3015.9201613,N,12007.1358446,E,4,31,0.5,3.7920,M,7.095,M,0.2,0004*4E
$GPGGA,085700.30,3015.9201616,N,12007.1358445,E,4,31,0.5,3.7928,M,7.095,M,0.3,0004*40
$GPGGA,085700.40,3015.9201615,N,12007.1358445,E,4,31,0.5,3.7982,M,7.095,M,0.4,0004*43
$GPGGA,085700.50,3015.9201625,N,12007.1358447,E,4,30,0.5,3.7950,M,7.095,M,0.5,0004*4C
$GPGGA,085700.60,3015.9201620,N,12007.1358455,E,4,30,0.5,3.7999,M,7.095,M,0.6,0004*4F
$GPGGA,085700.70,3015.9201619,N,12007.1358454,E,4,30,0.5,3.7948,M,7.095,M,0.7,0004*48
$GPGGA,085700.80,3015.9201613,N,12007.1358448,E,4,30,0.5,3.7912,M,7.095,M,0.8,0004*40
$GPGGA,085700.90,3015.9201612,N,12007.1358443,E,4,30,0.5,3.7881,M,7.095,M,0.9,0004*41
$GPGGA,085701.00,3015.9201607,N,12007.1358438,E,4,30,0.5,3.7936,M,7.095,M,1.0,0004*44
$GPGGA,085701.10,3015.9201599,N,12007.1358433,E,4,30,0.5,3.7940,M,7.095,M,0.1,0004*4B
$GPGGA,085701.20,3015.9201612,N,12007.1358432,E,4,30,0.5,3.7916,M,7.095,M,0.2,0004*49
$GPGGA,085701.30,3015.9201601,N,12007.1358442,E,4,30,0.5,3.7953,M,7.095,M,0.3,0004*4D
$GPGGA,085701.40,3015.9201607,N,12007.1358437,E,4,30,0.5,3.7906,M,7.095,M,0.4,0004*49
$GPGGA,085701.50,3015.9201605,N,12007.1358441,E,4,30,0.5,3.7912,M,7.095,M,0.5,0004*4F
$GPGGA,085701.60,3015.9201609,N,12007.1358439,E,4,30,0.5,3.7861,M,7.095,M,0.6,0004*49
$GPGGA,085701.70,3015.9201600,N,12007.1358426,E,4,30,0.5,3.7861,M,7.095,M,0.7,0004*4E
$GPGGA,085701.80,3015.9201606,N,12007.1358428,E,4,30,0.5,3.7860,M,7.095,M,0.8,0004*47
$GPGGA,085701.90,3015.9201585,N,12007.1358426,E,4,31,0.5,3.7842,M,7.095,M,0.9,0004*40
$GPGGA,085702.00,3015.9201595,N,12007.1358411,E,4,31,0.5,3.7894,M,7.095,M,1.0,0004*4C
$GPGGA,085702.10,3015.9201618,N,12007.1358438,E,4,31,0.5,3.7965,M,7.095,M,0.1,0004*4F
$GPGGA,085702.20,3015.9201602,N,12007.1358425,E,4,30,0.5,3.7921,M,7.095,M,0.2,0004*49
$GPGGA,085702.30,3015.9201604,N,12007.1358455,E,4,30,0.5,3.7920,M,7.095,M,0.3,0004*49
$GPGGA,085702.40,3015.9201611,N,12007.1358452,E,4,30,0.5,3.7903,M,7.095,M,0.4,0004*4B
$GPGGA,085702.50,3015.9201613,N,12007.1358456,E,4,30,0.5,3.7915,M,7.095,M,0.5,0004*4A
$GPGGA,085702.60,3015.9201617,N,12007.1358467,E,4,30,0.5,3.7927,M,7.095,M,0.6,0004*4D
$GPGGA,085702.70,3015.9201617,N,12007.1358458,E,4,30,0.5,3.7930,M,7.095,M,0.7,0004*47
$GPGGA,085702.80,3015.9201618,N,12007.1358470,E,4,30,0.5,3.7930,M,7.095,M,0.8,0004*42
$GPGGA,085702.90,3015.9201621,N,12007.1358471,E,4,30,0.5,3.7977,M,7.095,M,0.9,0004*4A
$GPGGA,085703.00,3015.9201625,N,12007.1358463,E,4,30,0.5,3.7920,M,7.095,M,1.0,0004*4F
$GPGGA,085703.10,3015.9201619,N,12007.1358484,E,4,30,0.5,3.8010,M,7.095,M,0.1,0004*4D
$GPGGA,085703.20,3015.9201620,N,12007.1358475,E,4,29,0.5,3.8044,M,7.095,M,0.2,0004*40
$GPGGA,085703.30,3015.9201623,N,12007.1358480,E,4,29,0.5,3.8042,M,7.095,M,0.3,0004*4F
$GPGGA,085703.40,3015.9201618,N,12007.1358472,E,4,29,0.5,3.8064,M,7.095,M,0.4,0004*4E
$GPGGA,085703.50,3015.9201620,N,12007.1358472,E,4,30,0.5,3.8013,M,7.095,M,0.5,0004*4D
$GPGGA,085703.60,3015.9201618,N,12007.1358467,E,4,30,0.5,3.8020,M,7.095,M,0.6,0004*42
$GPGGA,085703.70,3015.9201618,N,12007.1358468,E,4,30,0.5,3.8010,M,7.095,M,0.7,0004*4E
$GPGGA,085703.80,3015.9201626,N,12007.1358477,E,4,30,0.5,3.8026,M,7.095,M,0.8,0004*48
$GPGGA,085703.90,3015.9201622,N,12007.1358472,E,4,30,0.5,3.8026,M,7.095,M,0.9,0004*49
$GPGGA,085704.00,3015.9201620,N,12007.1358486,E,4,30,0.5,3.8053,M,7.095,M,1.0,0004*44
$GPGGA,085704.10,3015.9201617,N,12007.1358472,E,4,30,0.5,3.7988,M,7.095,M,0.1,0004*4A
$GPGGA,085704.20,3015.9201623,N,12007.1358490,E,4,30,0.5,3.8017,M,7.095,M,0.2,0004*41
$GPGGA,085704.30,3015.9201617,N,12007.1358494,E,4,30,0.5,3.8061,M,7.095,M,0.3,0004*43
$GPGGA,085704.40,3015.9201620,N,12007.1358486,E,4,30,0.5,3.8040,M,7.095,M,0.4,0004*47
$GPGGA,085704.50,3015.9201615,N,12007.1358484,E,4,30,0.5,3.8056,M,7.095,M,0.5,0004*44
$GPGGA,085704.60,3015.9201616,N,12007.1358493,E,4,30,0.5,3.8079,M,7.095,M,0.6,0004*4C
$GPGGA,085704.70,3015.9201613,N,12007.1358472,E,4,30,0.5,3.8056,M,7.095,M,0.7,0004*4B
$GPGGA,085704.80,3015.9201614,N,12007.1358481,E,4,30,0.5,3.8036,M,7.095,M,0.8,0004*46
$GPGGA,085704.90,3015.9201610,N,12007.1358480,E,4,30,0.5,3.8019,M,7.095,M,0.9,0004*4E
$GPGGA,085705.00,3015.9201616,N,12007.1358471,E,4,30,0.5,3.8029,M,7.095,M,1.0,0004*45
$GPGGA,085705.10,3015.9201619,N,12007.1358486,E,4,30,0.5,3.8007,M,7.095,M,0.1,0004*4F
$GPGGA,085705.20,3015.9201613,N,12007.1358477,E,4,30,0.5,3.8026,M,7.095,M,0.2,0004*48
$GPGGA,085705.30,3015.9201618,N,12007.1358485,E,4,30,0.5,3.8044,M,7.095,M,0.3,0004*4A
$GPGGA,085705.40,3015.9201610,N,12007.1358484,E,4,30,0.5,3.8051,M,7.095,M,0.4,0004*47
$GPGGA,085705.50,3015.9201616,N,12007.1358488,E,4,30,0.5,3.8014,M,7.095,M,0.5,0004*4C
$GPGGA,085705.60,3015.9201615,N,12007.1358488,E,4,30,0.5,3.8021,M,7.095,M,0.6,0004*49
$GPGGA,085705.70,3015.9201616,N,12007.1358491,E,4,30,0.5,3.8049,M,7.095,M,0.7,0004*4C
$GPGGA,085705.80,3015.9201619,N,12007.1358490,E,4,30,0.5,3.8028,M,7.095,M,0.8,0004*45
$GPGGA,085705.90,3015.9201610,N,12007.1358481,E,4,30,0.5,3.8059,M,7.095,M,0.9,0004*4A
$GPGGA,085706.00,3015.9201614,N,12007.1358480,E,4,30,0.5,3.8015,M,7.095,M,1.0,0004*45
$GPGGA,085706.10,3015.9201615,N,12007.1358476,E,4,30,0.5,3.8018,M,7.095,M,0.1,0004*41
$GPGGA,085706.20,3015.9201616,N,12007.1358474,E,4,30,0.5,3.7993,M,7.095,M,0.2,0004*45
$GPGGA,085706.30,3015.9201612,N,12007.1358475,E,4,30,0.5,3.8017,M,7.095,M,0.3,0004*4A
$GPGGA,085706.40,3015.9201614,N,12007.1358467,E,4,30,0.5,3.7988,M,7.095,M,0.4,0004*4F
$GPGGA,085706.50,3015.9201619,N,12007.1358482,E,4,30,0.5,3.8018,M,7.095,M,0.5,0004*46
$GPGGA,085706.60,3015.9201614,N,12007.1358465,E,4,30,0.5,3.7997,M,7.095,M,0.6,0004*43
$GPGGA,085706.70,3015.9201616,N,12007.1358477,E,4,30,0.5,3.8023,M,7.095,M,0.7,0004*4B
$GPGGA,085706.80,3015.9201618,N,12007.1358469,E,4,30,0.5,3.8023,M,7.095,M,0.8,0004*4A
$GPGGA,085706.90,3015.9201610,N,12007.1358468,E,4,30,0.5,3.8018,M,7.095,M,0.9,0004*4B
$GPGGA,085707.00,3015.9201615,N,12007.1358464,E,4,30,0.5,3.7981,M,7.095,M,1.0,0004*44
$GPGGA,085707.10,3015.9201614,N,12007.1358479,E,4,30,0.5,3.7945,M,7.095,M,0.1,0004*40
$GPGGA,085707.20,3015.9201615,N,12007.1358476,E,4,30,0.5,3.7942,M,7.095,M,0.2,0004*49
$GPGGA,085707.30,3015.9201615,N,12007.1358458,E,4,29,0.5,3.7916,M,7.095,M,0.3,0004*4C
$GPGGA,085707.40,3015.9201616,N,12007.1358469,E,4,30,0.5,3.7937,M,7.095,M,0.4,0004*46
$GPGGA,085707.50,3015.9201615,N,12007.1358466,E,4,30,0.5,3.7933,M,7.095,M,0.5,0004*4E
$GPGGA,085707.60,3015.9201614,N,12007.1358467,E,4,30,0.5,3.7959,M,7.095,M,0.6,0004*42
$GPGGA,085707.70,3015.9201618,N,12007.1358474,E,4,30,0.5,3.7932,M,7.095,M,0.7,0004*41
$GPGGA,085707.80,3015.9201615,N,12007.1358461,E,4,30,0.5,3.7908,M,7.095,M,0.8,0004*41
$GPGGA,085707.90,3015.9201618,N,12007.1358471,E,4,30,0.5,3.7970,M,7.095,M,0.9,0004*42
$GPGGA,085708.00,3015.9201617,N,12007.1358470,E,4,30,0.5,3.7950,M,7.095,M,1.0,0004*40
$GPGGA,085708.10,3015.9201619,N,12007.1358453,E,4,30,0.5,3.7916,M,7.095,M,0.1,0004*4C
$GPGGA,085708.20,3015.9201614,N,12007.1358462,E,4,30,0.5,3.7923,M,7.095,M,0.2,0004*45
$GPGGA,085708.30,3015.9201611,N,12007.1358474,E,4,30,0.5,3.7955,M,7.095,M,0.3,0004*46
$GPGGA,085708.40,3015.9201612,N,12007.1358458,E,4,30,0.5,3.7903,M,7.095,M,0.4,0004*48
$GPGGA,085708.50,3015.9201614,N,12007.1358464,E,4,30,0.5,3.7900,M,7.095,M,0.5,0004*42
$GPGGA,085708.60,3015.9201616,N,12007.1358467,E,4,30,0.5,3.7916,M,7.095,M,0.6,0004*44
$GPGGA,085708.70,3015.9201618,N,12007.1358461,E,4,30,0.5,3.7915,M,7.095,M,0.7,0004*4F
$GPGGA,085708.80,3015.9201609,N,12007.1358466,E,4,30,0.5,3.7938,M,7.095,M,0.8,0004*47
$GPGGA,085708.90,3015.9201607,N,12007.1358457,E,4,30,0.5,3.7944,M,7.095,M,0.9,0004*40
$GPGGA,085709.00,3015.9201610,N,12007.1358455,E,4,30,0.5,3.7927,M,7.095,M,1.0,0004*41
$GPGGA,085709.10,3015.9201608,N,12007.1358464,E,4,30,0.5,3.7987,M,7.095,M,0.1,0004*41
$GPGGA,085709.20,3015.9201611,N,12007.1358451,E,4,30,0.5,3.7954,M,7.095,M,0.2,0004*41
$GPGGA,085709.30,3015.9201607,N,12007.1358458,E,4,30,0.5,3.7959,M,7.095,M,0.3,0004*42
$GPGGA,085709.40,3015.9201608,N,12007.1358460,E,4,30,0.5,3.7958,M,7.095,M,0.4,0004*47
$GPGGA,085709.50,3015.9201607,N,12007.1358452,E,4,30,0.5,3.7952,M,7.095,M,0.5,0004*43
$GPGGA,085709.60,3015.9201607,N,12007.1358448,E,4,30,0.5,3.7957,M,7.095,M,0.6,0004*4D
$GPGGA,085709.70,3015.9201613,N,12007.1358451,E,4,30,0.5,3.7945,M,7.095,M,0.7,0004*43
$GPGGA,085709.80,3015.9201614,N,12007.1358454,E,4,30,0.5,3.7968,M,7.095,M,0.8,0004*4E
$GPGGA,085709.90,3015.9201611,N,12007.1358451,E,4,30,0.5,3.7944,M,7.095,M,0.9,0004*40
$GPGGA,085710.00,3015.9201614,N,12007.1358441,E,4,30,0.5,3.7945,M,7.095,M,1.0,0004*4C
$GPGGA,085710.10,3015.9201612,N,12007.1358456,E,4,30,0.5,3.7958,M,7.095,M,0.1,0004*41
$GPGGA,085710.20,3015.9201613,N,12007.1358446,E,4,30,0.5,3.7968,M,7.095,M,0.2,0004*42
$GPGGA,085710.30,3015.9201612,N,12007.1358452,E,4,30,0.5,3.7983,M,7.095,M,0.3,0004*43
$GPGGA,085710.40,3015.9201613,N,12007.1358450,E,4,30,0.5,3.7957,M,7.095,M,0.4,0004*49
$GPGGA,085710.50,3015.9201613,N,12007.1358454,E,4,30,0.5,3.7971,M,7.095,M,0.5,0004*49
$GPGGA,085710.60,3015.9201612,N,12007.1358446,E,4,30,0.5,3.7965,M,7.095,M,0.6,0004*4E
$GPGGA,085710.70,3015.9201613,N,12007.1358454,E,4,30,0.5,3.7927,M,7.095,M,0.7,0004*4A
$GPGGA,085710.80,3015.9201608,N,12007.1358450,E,4,30,0.5,3.7950,M,7.095,M,0.8,0004*44
$GPGGA,085710.90,3015.9201617,N,12007.1358459,E,4,30,0.5,3.7977,M,7.095,M,0.9,0004*46
$GPGGA,085711.00,3015.9201610,N,12007.1358451,E,4,30,0.5,3.7991,M,7.095,M,1.0,0004*41
$GPGGA,085711.10,3015.9201608,N,12007.1358440,E,4,30,0.5,3.7898,M,7.095,M,0.1,0004*41
$GPGGA,085711.20,3015.9201605,N,12007.1358444,E,4,30,0.5,3.7929,M,7.095,M,0.2,0004*43
$GPGGA,085711.30,3015.9201608,N,12007.1358448,E,4,30,0.5,3.7928,M,7.095,M,0.3,0004*43
$GPGGA,085711.40,3015.9201602,N,12007.1358443,E,4,30,0.5,3.7930,M,7.095,M,0.4,0004*4B
$GPGGA,085711.50,3015.9201601,N,12007.1358450,E,4,29,0.5,3.7946,M,7.095,M,0.5,0004*43
$GPGGA,085711.60,3015.9201599,N,12007.1358441,E,4,29,0.5,3.7927,M,7.095,M,0.6,0004*46
$GPGGA,085711.70,3015.9201601,N,12007.1358442,E,4,29,0.5,3.7926,M,7.095,M,0.7,0004*46
$GPGGA,085711.80,3015.9201599,N,12007.1358439,E,4,29,0.5,3.7911,M,7.095,M,0.8,0004*4C
$GPGGA,085711.90,3015.9201600,N,12007.1358438,E,4,29,0.5,3.7930,M,7.095,M,0.9,0004*4D
$GPGGA,085712.00,3015.9201599,N,12007.1358434,E,4,29,0.5,3.7912,M,7.095,M,1.0,0004*40
$GPGGA,085712.10,3015.9201619,N,12007.1358453,E,4,29,0.5,3.7892,M,7.095,M,0.1,0004*42
$GPGGA,085712.20,3015.9201616,N,12007.1358446,E,4,30,0.5,3.7921,M,7.095,M,0.2,0004*48
$GPGGA,085712.30,3015.9201620,N,12007.1358436,E,4,30,0.5,3.7898,M,7.095,M,0.3,0004*49
$GPGGA,085712.40,3015.9201617,N,12007.1358431,E,4,29,0.5,3.7902,M,7.095,M,0.4,0004*40
$GPGGA,085712.50,3015.9201617,N,12007.1358434,E,4,29,0.5,3.7920,M,7.095,M,0.5,0004*45
$GPGGA,085712.60,3015.9201617,N,12007.1358427,E,4,29,0.5,3.7916,M,7.095,M,0.6,0004*42
$GPGGA,085712.70,3015.9201612,N,12007.1358431,E,4,29,0.5,3.7922,M,7.095,M,0.7,0004*47
$GPGGA,085712.80,3015.9201616,N,12007.1358430,E,4,29,0.5,3.7887,M,7.095,M,0.8,0004*4C
$GPGGA,085712.90,3015.9201613,N,12007.1358430,E,4,29,0.5,3.7897,M,7.095,M,0.9,0004*48
$GPGGA,085713.00,3015.9201614,N,12007.1358433,E,4,29,0.5,3.7897,M,7.095,M,1.0,0004*4C
$GPGGA,085713.10,3015.9201610,N,12007.1358438,E,4,29,0.5,3.7865,M,7.095,M,0.1,0004*4F
$GPGGA,085713.20,3015.9201612,N,12007.1358442,E,4,29,0.5,3.7875,M,7.095,M,0.2,0004*41
$GPGGA,085713.30,3015.9201617,N,12007.1358424,E,4,29,0.5,3.7810,M,7.095,M,0.3,0004*47
$GPGGA,085713.40,3015.9201611,N,12007.1358432,E,4,29,0.5,3.7839,M,7.095,M,0.4,0004*4D
$GPGGA,085713.50,3015.9201608,N,12007.1358437,E,4,30,0.5,3.7869,M,7.095,M,0.5,0004*4D
$GPGGA,085713.60,3015.9201608,N,12007.1358438,E,4,30,0.5,3.7892,M,7.095,M,0.6,0004*46
$GPGGA,085713.70,3015.9201609,N,12007.1358425,E,4,30,0.5,3.7895,M,7.095,M,0.7,0004*4C
$GPGGA,085713.80,3015.9201610,N,12007.1358439,E,4,30,0.5,3.7899,M,7.095,M,0.8,0004*45
$GPGGA,085713.90,3015.9201619,N,12007.1358444,E,4,30,0.5,3.7897,M,7.095,M,0.9,0004*48
$GPGGA,085714.00,3015.9201611,N,12007.1358441,E,4,30,0.5,3.7921,M,7.095,M,1.0,0004*4F
$GPGGA,085714.10,3015.9201610,N,12007.1358440,E,4,29,0.5,3.7945,M,7.095,M,0.1,0004*44
$GPGGA,085714.20,3015.9201605,N,12007.1358434,E,4,29,0.5,3.7892,M,7.095,M,0.2,0004*48
$GPGGA,085714.30,3015.9201609,N,12007.1358434,E,4,29,0.5,3.7941,M,7.095,M,0.3,0004*4B
$GPGGA,085714.40,3015.9201607,N,12007.1358437,E,4,29,0.5,3.7918,M,7.095,M,0.4,0004*4A
$GPGGA,085714.50,3015.9201605,N,12007.1358426,E,4,29,0.5,3.7899,M,7.095,M,0.5,0004*40
$GPGGA,085714.60,3015.9201610,N,12007.1358435,E,4,29,0.5,3.7952,M,7.095,M,0.6,0004*40
$GPGGA,085714.70,3015.9201611,N,12007.1358428,E,4,29,0.5,3.7922,M,7.095,M,0.7,0004*4A
$GPGGA,085714.80,3015.9201609,N,12007.1358432,E,4,30,0.5,3.7933,M,7.095,M,0.8,0004*40
$GPGGA,085714.90,3015.9201607,N,12007.1358423,E,4,30,0.5,3.7956,M,7.095,M,0.9,0004*4D
$GPGGA,085715.00,3015.9201612,N,12007.1358428,E,4,29,0.5,3.7905,M,7.095,M,1.0,0004*4C
$GPGGA,085715.10,3015.9201607,N,12007.1358403,E,4,29,0.5,3.7855,M,7.095,M,0.1,0004*44
$GPGGA,085715.20,3015.9201612,N,12007.1358426,E,4,29,0.5,3.7912,M,7.095,M,0.2,0004*45
$GPGGA,085715.30,3015.9201613,N,12007.1358408,E,4,29,0.5,3.7851,M,7.095,M,0.3,0004*4E
$GPGGA,085715.40,3015.9201609,N,12007.1358410,E,4,29,0.5,3.7840,M,7.095,M,0.4,0004*4C
$GPGGA,085715.50,3015.9201610,N,12007.1358406,E,4,29,0.5,3.7827,M,7.095,M,0.5,0004*42
$GPGGA,085715.60,3015.9201611,N,12007.1358415,E,4,29,0.5,3.7921,M,7.095,M,0.6,0004*46
$GPGGA,085715.70,3015.9201613,N,12007.1358417,E,4,29,0.5,3.7870,M,7.095,M,0.7,0004*43
$GPGGA,085715.80,3015.9201613,N,12007.1358419,E,4,29,0.5,3.7861,M,7.095,M,0.8,0004*4D
$GPGGA,085715.90,3015.9201614,N,12007.1358413,E,4,29,0.5,3.7836,M,7.095,M,0.9,0004*42
$GPGGA,085716.00,3015.9201611,N,12007.1358410,E,4,30,0.5,3.7852,M,7.095,M,1.0,0004*4C
$GPGGA,085716.10,3015.9201616,N,12007.1358431,E,4,30,0.5,3.7863,M,7.095,M,0.1,0004*4B
$GPGGA,085716.20,3015.9201614,N,12007.1358422,E,4,30,0.5,3.7844,M,7.095,M,0.2,0004*4E
$GPGGA,085716.30,3015.9201616,N,12007.1358416,E,4,30,0.5,3.7854,M,7.095,M,0.3,0004*4A
$GPGGA,085716.40,3015.9201614,N,12007.1358419,E,4,30,0.5,3.7833,M,7.095,M,0.4,0004*46
$GPGGA,085716.50,3015.9201613,N,12007.1358421,E,4,30,0.5,3.7854,M,7.095,M,0.5,0004*4B
$GPGGA,085716.60,3015.9201612,N,12007.1358417,E,4,30,0.5,3.7828,M,7.095,M,0.6,0004*44
$GPGGA,085716.70,3015.9201613,N,12007.1358420,E,4,30,0.5,3.7848,M,7.095,M,0.7,0004*47
$GPGGA,085716.80,3015.9201609,N,12007.1358423,E,4,30,0.5,3.7859,M,7.095,M,0.8,0004*4F
$GPGGA,085716.90,3015.9201617,N,12007.1358417,E,4,30,0.5,3.7861,M,7.095,M,0.9,0004*4C
$GPGGA,085717.00,3015.9201617,N,12007.1358415,E,4,29,0.5,3.7843,M,7.095,M,1.0,0004*46
$GPGGA,085717.10,3015.9201607,N,12007.1358433,E,4,29,0.5,3.7895,M,7.095,M,0.1,0004*49
$GPGGA,085717.20,3015.9201611,N,12007.1358432,E,4,29,0.5,3.7861,M,7.095,M,0.2,0004*44
$GPGGA,085717.30,3015.9201616,N,12007.1358432,E,4,29,0.5,3.7800,M,7.095,M,0.3,0004*44
$GPGGA,085717.40,3015.9201610,N,12007.1358437,E,4,29,0.5,3.7857,M,7.095,M,0.4,0004*45
$GPGGA,085717.50,3015.9201611,N,12007.1358431,E,4,29,0.5,3.7858,M,7.095,M,0.5,0004*4D
$GPGGA,085717.60,3015.9201610,N,12007.1358424,E,4,29,0.5,3.7852,M,7.095,M,0.6,0004*42
$GPGGA,085717.70,3015.9201613,N,12007.1358434,E,4,29,0.5,3.7878,M,7.095,M,0.7,0004*48
$GPGGA,085717.80,3015.9201618,N,12007.1358441,E,4,29,0.5,3.7859,M,7.095,M,0.8,0004*42
$GPGGA,085717.90,3015.9201616,N,12007.1358429,E,4,29,0.5,3.7841,M,7.095,M,0.9,0004*4B
$GPGGA,085718.00,3015.9201618,N,12007.1358432,E,4,29,0.5,3.7862,M,7.095,M,1.0,0004*40
$GPGGA,085718.10,3015.9201609,N,12007.1358443,E,4,29,0.5,3.7885,M,7.095,M,0.1,0004*4E
$GPGGA,085718.20,3015.9201611,N,12007.1358452,E,4,28,0.5,3.7860,M,7.095,M,0.2,0004*4D
$GPGGA,085718.30,3015.9201606,N,12007.1358438,E,4,29,0.5,3.7903,M,7.095,M,0.3,0004*42
$GPGGA,085718.40,3015.9201615,N,12007.1358448,E,4,29,0.5,3.7915,M,7.095,M,0.4,0004*40
$GPGGA,085718.50,3015.9201610,N,12007.1358454,E,4,28,0.5,3.7942,M,7.095,M,0.5,0004*4B
$GPGGA,085718.60,3015.9201614,N,12007.1358449,E,4,28,0.5,3.7945,M,7.095,M,0.6,0004*44
$GPGGA,085718.70,3015.9201612,N,12007.1358459,E,4,28,0.5,3.7943,M,7.095,M,0.7,0004*45
$GPGGA,085718.80,3015.9201613,N,12007.1358452,E,4,28,0.5,3.7918,M,7.095,M,0.8,0004*41
$GPGGA,085718.90,3015.9201609,N,12007.1358447,E,4,29,0.5,3.7940,M,7.095,M,0.9,0004*42
$GPGGA,085719.00,3015.9201604,N,12007.1358446,E,4,29,0.5,3.7925,M,7.095,M,1.0,0004*4D
$GPGGA,085719.10,3015.9201606,N,12007.1358446,E,4,29,0.5,3.7868,M,7.095,M,0.1,0004*46
$GPGGA,085719.20,3015.9201601,N,12007.1358438,E,4,29,0.5,3.7876,M,7.095,M,0.2,0004*47
$GPGGA,085719.30,3015.9201603,N,12007.1358451,E,4,29,0.5,3.7898,M,7.095,M,0.3,0004*4A
$GPGGA,085719.40,3015.9201601,N,12007.1358450,E,4,29,0.5,3.7897,M,7.095,M,0.4,0004*46
$GPGGA,085719.50,3015.9201607,N,12007.1358456,E,4,29,0.5,3.7891,M,7.095,M,0.5,0004*40
$GPGGA,085719.60,3015.9201606,N,12007.1358443,E,4,29,0.5,3.7873,M,7.095,M,0.6,0004*49
$GPGGA,085719.70,3015.9201606,N,12007.1358439,E,4,29,0.5,3.7898,M,7.095,M,0.7,0004*41
$GPGGA,085719.80,3015.9201604,N,12007.1358445,E,4,29,0.5,3.7904,M,7.095,M,0.8,0004*4C
$GPGGA,085719.90,3015.9201606,N,12007.1358449,E,4,29,0.5,3.7894,M,7.095,M,0.9,0004*4A
$GPGGA,085720.00,3015.9201605,N,12007.1358441,E,4,29,0.5,3.7867,M,7.095,M,1.0,0004*46
$GPGGA,085720.10,3015.9201603,N,12007.1358443,E,4,30,0.5,3.7946,M,7.095,M,0.1,0004*49
$GPGGA,085720.20,3015.9201606,N,12007.1358445,E,4,30,0.5,3.7911,M,7.095,M,0.2,0004*48
$GPGGA,085720.30,3015.9201598,N,12007.1358442,E,4,30,0.5,3.7945,M,7.095,M,0.3,0004*4A
$GPGGA,085720.40,3015.9201603,N,12007.1358445,E,4,30,0.5,3.7936,M,7.095,M,0.4,0004*48
$GPGGA,085720.50,3015.9201604,N,12007.1358448,E,4,30,0.5,3.7959,M,7.095,M,0.5,0004*4B
$GPGGA,085720.60,3015.9201595,N,12007.1358440,E,4,30,0.5,3.7949,M,7.095,M,0.6,0004*49
$GPGGA,085720.70,3015.9201604,N,12007.1358442,E,4,30,0.5,3.7949,M,7.095,M,0.7,0004*40
$GPGGA,085720.80,3015.9201602,N,12007.1358444,E,4,30,0.5,3.7952,M,7.095,M,0.8,0004*4A
$GPGGA,085720.90,3015.9201602,N,12007.1358438,E,4,30,0.5,3.7959,M,7.095,M,0.9,0004*4A
$GPGGA,085721.00,3015.9201600,N,12007.1358436,E,4,30,0.5,3.7960,M,7.095,M,1.0,0004*4C
$GPGGA,085721.10,3015.9201608,N,12007.1358424,E,4,30,0.5,3.7868,M,7.095,M,0.1,0004*4F
$GPGGA,085721.20,3015.9201606,N,12007.1358435,E,4,30,0.5,3.7864,M,7.095,M,0.2,0004*4D
$GPGGA,085721.30,3015.9201610,N,12007.1358437,E,4,30,0.5,3.7878,M,7.095,M,0.3,0004*45
$GPGGA,085721.40,3015.9201608,N,12007.1358435,E,4,30,0.5,3.7839,M,7.095,M,0.4,0004*4B
$GPGGA,085721.50,3015.9201612,N,12007.1358425,E,4,30,0.5,3.7817,M,7.095,M,0.5,0004*4D
$GPGGA,085721.60,3015.9201609,N,12007.1358419,E,4,30,0.5,3.7807,M,7.095,M,0.6,0004*49
$GPGGA,085721.70,3015.9201616,N,12007.1358423,E,4,30,0.5,3.7808,M,7.095,M,0.7,0004*41
$GPGGA,085721.80,3015.9201611,N,12007.1358418,E,4,30,0.5,3.7791,M,7.095,M,0.8,0004*41
$GPGGA,085721.90,3015.9201609,N,12007.1358421,E,4,30,0.5,3.7781,M,7.095,M,0.9,0004*43
$GPGGA,085722.00,3015.9201610,N,12007.1358420,E,4,30,0.5,3.7779,M,7.095,M,1.0,0004*4F
$GPGGA,085722.10,3015.9201614,N,12007.1358431,E,4,30,0.5,3.7779,M,7.095,M,0.1,0004*4A
$GPGGA,085722.20,3015.9201613,N,12007.1358438,E,4,30,0.5,3.7817,M,7.095,M,0.2,0004*43
$GPGGA,085722.30,3015.9201615,N,12007.1358430,E,4,30,0.5,3.7798,M,7.095,M,0.3,0004*45
$GPGGA,085722.40,3015.9201611,N,12007.1358420,E,4,30,0.5,3.7793,M,7.095,M,0.4,0004*4B
$GPGGA,085722.50,3015.9201613,N,12007.1358426,E,4,30,0.5,3.7784,M,7.095,M,0.5,0004*49
$GPGGA,085722.60,3015.9201611,N,12007.1358417,E,4,30,0.5,3.7796,M,7.095,M,0.6,0004*4A
$GPGGA,085722.70,3015.9201611,N,12007.1358414,E,4,30,0.5,3.7759,M,7.095,M,0.7,0004*4A
$GPGGA,085722.80,3015.9201611,N,12007.1358414,E,4,30,0.5,3.7814,M,7.095,M,0.8,0004*4C
$GPGGA,085722.90,3015.9201607,N,12007.1358407,E,4,30,0.5,3.7807,M,7.095,M,0.9,0004*4B
$GPGGA,085723.00,3015.9201607,N,12007.1358416,E,4,30,0.5,3.7791,M,7.095,M,1.0,0004*4B
$GPGGA,085723.10,3015.9201601,N,12007.1358414,E,4,30,0.5,3.7889,M,7.095,M,0.1,0004*48
$GPGGA,085723.20,3015.9201604,N,12007.1358421,E,4,30,0.5,3.7873,M,7.095,M,0.2,0004*4E
$GPGGA,085723.30,3015.9201602,N,12007.1358413,E,4,30,0.5,3.7870,M,7.095,M,0.3,0004*4A
$GPGGA,085723.40,3015.9201607,N,12007.1358427,E,4,30,0.5,3.7856,M,7.095,M,0.4,0004*4C
$GPGGA,085723.50,3015.9201599,N,12007.1358429,E,4,30,0.5,3.7922,M,7.095,M,0.5,0004*44
$GPGGA,085723.60,3015.9201605,N,12007.1358429,E,4,29,0.5,3.7906,M,7.095,M,0.6,0004*4C
$GPGGA,085723.70,3015.9201604,N,12007.1358430,E,4,29,0.5,3.7884,M,7.095,M,0.7,0004*4E
$GPGGA,085723.80,3015.9201602,N,12007.1358422,E,4,29,0.5,3.7896,M,7.095,M,0.8,0004*48
$GPGGA,085723.90,3015.9201607,N,12007.1358433,E,4,30,0.5,3.7936,M,7.095,M,0.9,0004*4E
$GPGGA,085724.00,3015.9201608,N,12007.1358424,E,4,30,0.5,3.7901,M,7.095,M,1.0,0004*45
$GPGGA,085724.10,3015.9201606,N,12007.1358419,E,4,29,0.5,3.7896,M,7.095,M,0.1,0004*43
$GPGGA,085724.20,3015.9201612,N,12007.1358424,E,4,29,0.5,3.7891,M,7.095,M,0.2,0004*4F
$GPGGA,085724.30,3015.9201605,N,12007.1358419,E,4,29,0.5,3.7904,M,7.095,M,0.3,0004*4A
$GPGGA,085724.40,3015.9201604,N,12007.1358415,E,4,29,0.5,3.7872,M,7.095,M,0.4,0004*47
$GPGGA,085724.50,3015.9201608,N,12007.1358424,E,4,29,0.5,3.7873,M,7.095,M,0.5,0004*48
$GPGGA,085724.60,3015.9201611,N,12007.1358415,E,4,30,0.5,3.7850,M,7.095,M,0.6,0004*4B
$GPGGA,085724.70,3015.9201610,N,12007.1358423,E,4,30,0.5,3.7899,M,7.095,M,0.7,0004*4A
$GPGGA,085724.80,3015.9201608,N,12007.1358421,E,4,30,0.5,3.7867,M,7.095,M,0.8,0004*40
$GPGGA,085724.90,3015.9201599,N,12007.1358429,E,4,30,0.5,3.7951,M,7.095,M,0.9,0004*47
$GPGGA,085725.00,3015.9201605,N,12007.1358431,E,4,30,0.5,3.7916,M,7.095,M,1.0,0004*4B
$GPGGA,085725.10,3015.9201595,N,12007.1358413,E,4,30,0.5,3.7846,M,7.095,M,0.1,0004*44
$GPGGA,085725.20,3015.9201602,N,12007.1358414,E,4,30,0.5,3.7828,M,7.095,M,0.2,0004*46
$GPGGA,085725.30,3015.9201601,N,12007.1358413,E,4,30,0.5,3.7818,M,7.095,M,0.3,0004*41
$GPGGA,085725.40,3015.9201598,N,12007.1358411,E,4,30,0.5,3.7834,M,7.095,M,0.4,0004*4E
$GPGGA,085725.50,3015.9201597,N,12007.1358401,E,4,30,0.5,3.7800,M,7.095,M,0.5,0004*47
$GPGGA,085725.60,3015.9201593,N,12007.1358403,E,4,30,0.5,3.7824,M,7.095,M,0.6,0004*47
$GPGGA,085725.70,3015.9201596,N,12007.1358400,E,4,30,0.5,3.7846,M,7.095,M,0.7,0004*45
$GPGGA,085725.80,3015.9201596,N,12007.1358406,E,4,30,0.5,3.7846,M,7.095,M,0.8,0004*43
$GPGGA,085725.90,3015.9201596,N,12007.1358401,E,4,30,0.5,3.7824,M,7.095,M,0.9,0004*40
$GPGGA,085726.00,3015.9201593,N,12007.1358403,E,4,30,0.5,3.7854,M,7.095,M,1.0,0004*42
$GPGGA,085726.10,3015.9201600,N,12007.1358386,E,4,30,0.5,3.7762,M,7.095,M,0.1,0004*4A
$GPGGA,085726.20,3015.9201602,N,12007.1358385,E,4,30,0.5,3.7769,M,7.095,M,0.2,0004*40
$GPGGA,085726.30,3015.9201603,N,12007.1358393,E,4,30,0.5,3.7762,M,7.095,M,0.3,0004*4D
$GPGGA,085726.40,3015.9201609,N,12007.1358390,E,4,30,0.5,3.7727,M,7.095,M,0.4,0004*45
$GPGGA,085726.50,3015.9201603,N,12007.1358404,E,4,30,0.5,3.7750,M,7.095,M,0.5,0004*45
$GPGGA,085726.60,3015.9201602,N,12007.1358401,E,4,30,0.5,3.7738,M,7.095,M,0.6,0004*4F
$GPGGA,085726.70,3015.9201602,N,12007.1358402,E,4,29,0.5,3.7737,M,7.095,M,0.7,0004*4B
$GPGGA,085726.80,3015.9201601,N,12007.1358401,E,4,29,0.5,3.7747,M,7.095,M,0.8,0004*4C
$GPGGA,085726.90,3015.9201603,N,12007.1358403,E,4,29,0.5,3.7707,M,7.095,M,0.9,0004*48
$GPGGA,085727.00,3015.9201604,N,12007.1358393,E,4,29,0.5,3.7705,M,7.095,M,1.0,0004*43
$GPGGA,085727.10,3015.9201606,N,12007.1358394,E,4,29,0.5,3.7768,M,7.095,M,0.1,0004*4C
$GPGGA,085727.20,3015.9201613,N,12007.1358394,E,4,29,0.5,3.7737,M,7.095,M,0.2,0004*42
$GPGGA,085727.30,3015.9201610,N,12007.1358389,E,4,29,0.5,3.7741,M,7.095,M,0.3,0004*4C
$GPGGA,085727.40,3015.9201610,N,12007.1358397,E,4,29,0.5,3.7785,M,7.095,M,0.4,0004*4B
$GPGGA,085727.50,3015.9201602,N,12007.1358380,E,4,29,0.5,3.7722,M,7.095,M,0.5,0004*43
$GPGGA,085727.60,3015.9201602,N,12007.1358400,E,4,29,0.5,3.7829,M,7.095,M,0.6,0004*48
$GPGGA,085727.70,3015.9201608,N,12007.1358403,E,4,29,0.5,3.7850,M,7.095,M,0.7,0004*4F
$GPGGA,085727.80,3015.9201611,N,12007.1358399,E,4,29,0.5,3.7830,M,7.095,M,0.8,0004*45
$GPGGA,085727.90,3015.9201608,N,12007.1358407,E,4,29,0.5,3.7863,M,7.095,M,0.9,0004*4B
$GPGGA,085728.00,3015.9201607,N,12007.1358395,E,4,29,0.5,3.7888,M,7.095,M,1.0,0004*43
$GPGGA,085728.10,3015.9201610,N,12007.1358408,E,4,29,0.5,3.7825,M,7.095,M,0.1,0004*40
$GPGGA,085728.20,3015.9201613,N,12007.1358413,E,4,29,0.5,3.7839,M,7.095,M,0.2,0004*44
$GPGGA,085728.30,3015.9201610,N,12007.1358406,E,4,29,0.5,3.7808,M,7.095,M,0.3,0004*41
$GPGGA,085728.40,3015.9201605,N,12007.1358410,E,4,29,0.5,3.7841,M,7.095,M,0.4,0004*4F
$GPGGA,085728.50,3015.9201600,N,12007.1358396,E,4,30,0.5,3.7789,M,7.095,M,0.5,0004*40
$GPGGA,085728.60,3015.9201603,N,12007.1358400,E,4,30,0.5,3.7756,M,7.095,M,0.6,0004*49
$GPGGA,085728.70,3015.9201603,N,12007.1358392,E,4,30,0.5,3.7755,M,7.095,M,0.7,0004*46
$GPGGA,085728.80,3015.9201605,N,12007.1358407,E,4,30,0.5,3.7806,M,7.095,M,0.8,0004*42
$GPGGA,085728.90,3015.9201601,N,12007.1358392,E,4,30,0.5,3.7774,M,7.095,M,0.9,0004*47
$GPGGA,085729.00,3015.9201608,N,12007.1358393,E,4,29,0.5,3.7783,M,7.095,M,1.0,0004*4F
$GPGGA,085729.10,3015.9201605,N,12007.1358401,E,4,29,0.5,3.7776,M,7.095,M,0.1,0004*45
$GPGGA,085729.20,3015.9201607,N,12007.1358392,E,4,29,0.5,3.7735,M,7.095,M,0.2,0004*4D
$GPGGA,085729.30,3015.9201600,N,12007.1358391,E,4,29,0.5,3.7829,M,7.095,M,0.3,0004*4B
$GPGGA,085729.40,3015.9201607,N,12007.1358397,E,4,29,0.5,3.7842,M,7.095,M,0.4,0004*47
$GPGGA,085729.50,3015.9201604,N,12007.1358396,E,4,29,0.5,3.7807,M,7.095,M,0.5,0004*44
$GPGGA,085729.60,3015.9201607,N,12007.1358399,E,4,29,0.5,3.7812,M,7.095,M,0.6,0004*4C
$GPGGA,085729.70,3015.9201612,N,12007.1358404,E,4,29,0.5,3.7784,M,7.095,M,0.7,0004*4B
$GPGGA,085729.80,3015.9201608,N,12007.1358403,E,4,29,0.5,3.7808,M,7.095,M,0.8,0004*4C
$GPGGA,085729.90,3015.9201599,N,12007.1358400,E,4,29,0.5,3.7786,M,7.095,M,0.9,0004*4D
$GPGGA,085730.00,3015.9201600,N,12007.1358401,E,4,29,0.5,3.7820,M,7.095,M,1.0,0004*45
$GPGGA,085730.10,3015.9201600,N,12007.1358399,E,4,29,0.5,3.7917,M,7.095,M,0.1,0004*47
$GPGGA,085730.20,3015.9201603,N,12007.1358411,E,4,29,0.5,3.7915,M,7.095,M,0.2,0004*41
$GPGGA,085730.30,3015.9201601,N,12007.1358414,E,4,29,0.5,3.7926,M,7.095,M,0.3,0004*46
$GPGGA,085730.40,3015.9201601,N,12007.1358418,E,4,29,0.5,3.7955,M,7.095,M,0.4,0004*4E
$GPGGA,085730.50,3015.9201606,N,12007.1358417,E,4,29,0.5,3.7972,M,7.095,M,0.5,0004*43
$GPGGA,085730.60,3015.9201603,N,12007.1358411,E,4,29,0.5,3.7973,M,7.095,M,0.6,0004*41
$GPGGA,085730.70,3015.9201604,N,12007.1358406,E,4,29,0.5,3.7946,M,7.095,M,0.7,0004*46
$GPGGA,085730.80,3015.9201603,N,12007.1358407,E,4,29,0.5,3.7968,M,7.095,M,0.8,0004*4C
$GPGGA,085730.90,3015.9201600,N,12007.1358399,E,4,29,0.5,3.7959,M,7.095,M,0.9,0004*4D
$GPGGA,085731.00,3015.9201605,N,12007.1358399,E,4,29,0.5,3.7952,M,7.095,M,1.0,0004*43
$GPGGA,085731.10,3015.9201599,N,12007.1358388,E,4,29,0.5,3.7921,M,7.095,M,0.1,0004*40
$GPGGA,085731.20,3015.9201603,N,12007.1358398,E,4,29,0.5,3.7924,M,7.095,M,0.2,0004*44
$GPGGA,085731.30,3015.9201599,N,12007.1358391,E,4,29,0.5,3.7922,M,7.095,M,0.3,0004*4B
$GPGGA,085731.40,3015.9201602,N,12007.1358393,E,4,29,0.5,3.7917,M,7.095,M,0.4,0004*4E
$GPGGA,085731.50,3015.9201600,N,12007.1358389,E,4,29,0.5,3.7946,M,7.095,M,0.5,0004*43
