$GPGGA,014301.20,3015.9423115,N,12007.1899254,E,4,31,0.5,11.8971,M,7.098,M,0.2,0004*72
$GPGGA,014301.30,3015.9423113,N,12007.1899254,E,4,31,0.5,11.8928,M,7.098,M,0.3,0004*78
$GPGGA,014301.40,3015.9423108,N,12007.1899254,E,4,31,0.5,11.8995,M,7.098,M,0.4,0004*74
$GPGGA,014301.50,3015.9423115,N,12007.1899258,E,4,31,0.5,11.8965,M,7.098,M,0.5,0004*7B
$GPGGA,014301.60,3015.9423115,N,12007.1899251,E,4,31,0.5,11.8979,M,7.098,M,0.6,0004*7F
$GPGGA,014301.70,3015.9423117,N,12007.1899254,E,4,31,0.5,11.8986,M,7.098,M,0.7,0004*78
$GPGGA,014301.80,3015.9423107,N,12007.1899251,E,4,31,0.5,11.8974,M,7.098,M,0.8,0004*71
$GPGGA,014301.90,3015.9423110,N,12007.1899249,E,4,31,0.5,11.8953,M,7.098,M,0.9,0004*7B
$GPGGA,014302.00,3015.9423105,N,12007.1899253,E,4,31,0.5,11.8952,M,7.098,M,1.0,0004*77
$GPGGA,014302.10,3015.9423105,N,12007.1899270,E,4,31,0.5,11.8981,M,7.098,M,0.1,0004*79
$GPGGA,014302.20,3015.9423113,N,12007.1899265,E,4,31,0.5,11.8874,M,7.098,M,0.2,0004*71
$GPGGA,014302.30,3015.9423136,N,12007.1899278,E,4,31,0.5,11.8868,M,7.098,M,0.3,0004*77
$GPGGA,014302.40,3015.9423141,N,12007.1899282,E,4,31,0.5,11.8855,M,7.098,M,0.4,0004*7C
$GPGGA,014302.50,3015.9423145,N,12007.1899306,E,4,31,0.5,11.8842,M,7.098,M,0.5,0004*73
$GPGGA,014302.60,3015.9423163,N,12007.1899312,E,4,31,0.5,11.8778,M,7.098,M,0.6,0004*74
$GPGGA,014302.70,3015.9423149,N,12007.1899313,E,4,32,0.5,11.8796,M,7.098,M,0.7,0004*7E
$GPGGA,014302.80,3015.9423154,N,12007.1899313,E,4,32,0.5,11.8758,M,7.098,M,0.8,0004*70
$GPGGA,014302.90,3015.9423143,N,12007.1899297,E,4,32,0.5,11.8760,M,7.098,M,0.9,0004*70
$GPGGA,014303.00,3015.9423138,N,12007.1899302,E,4,32,0.5,11.8726,M,7.098,M,1.0,0004*73
$GPGGA,014303.10,3015.9423129,N,12007.1899284,E,4,32,0.5,11.8741,M,7.098,M,0.1,0004*7C
$GPGGA,014303.20,3015.9423135,N,12007.1899289,E,4,32,0.5,11.8759,M,7.098,M,0.2,0004*75
$GPGGA,014303.30,3015.9423126,N,12007.1899296,E,4,32,0.5,11.8772,M,7.098,M,0.3,0004*70
$GPGGA,014303.40,3015.9423118,N,12007.1899285,E,4,32,0.5,11.8754,M,7.098,M,0.4,0004*7B
$GPGGA,014303.50,3015.9423109,N,12007.1899289,E,4,32,0.5,11.8788,M,7.098,M,0.5,0004*76
$GPGGA,014303.60,3015.9423109,N,12007.1899295,E,4,32,0.5,11.8790,M,7.098,M,0.6,0004*72
$GPGGA,014303.70,3015.9423114,N,12007.1899296,E,4,32,0.5,11.8795,M,7.098,M,0.7,0004*78
$GPGGA,014303.80,3015.9423113,N,12007.1899297,E,4,32,0.5,11.8818,M,7.098,M,0.8,0004*74
$GPGGA,014303.90,3015.9423111,N,12007.1899298,E,4,31,0.5,11.8813,M,7.098,M,0.9,0004*71
$GPGGA,014304.00,3015.9423124,N,12007.1899304,E,4,32,0.5,11.8814,M,7.098,M,1.0,0004*71
$GPGGA,014304.10,3015.9423122,N,12007.1899302,E,4,32,0.5,11.8844,M,7.098,M,0.1,0004*75
$GPGGA,014304.20,3015.9423133,N,12007.1899302,E,4,32,0.5,11.8883,M,7.098,M,0.2,0004*7E
$GPGGA,014304.30,3015.9423136,N,12007.1899300,E,4,32,0.5,11.8873,M,7.098,M,0.3,0004*76
$GPGGA,014304.40,3015.9423133,N,12007.1899296,E,4,31,0.5,11.8917,M,7.098,M,0.4,0004*7D
$GPGGA,014304.50,3015.9423137,N,12007.1899298,E,4,31,0.5,11.8866,M,7.098,M,0.5,0004*70
$GPGGA,014304.60,3015.9423146,N,12007.1899289,E,4,31,0.5,11.8785,M,7.098,M,0.6,0004*74
$GPGGA,014304.70,3015.9423153,N,12007.1899298,E,4,31,0.5,11.8834,M,7.098,M,0.7,0004*75
$GPGGA,014304.80,3015.9423148,N,12007.1899296,E,4,31,0.5,11.8813,M,7.098,M,0.8,0004*74
$GPGGA,014304.90,3015.9423149,N,12007.1899304,E,4,31,0.5,11.8837,M,7.098,M,0.9,0004*79
$GPGGA,014305.00,3015.9423147,N,12007.1899298,E,4,31,0.5,11.8805,M,7.098,M,1.0,0004*72
$GPGGA,014305.10,3015.9423144,N,12007.1899302,E,4,31,0.5,11.8834,M,7.098,M,1.1,0004*71
$GPGGA,014305.20,3015.9423147,N,12007.1899297,E,4,31,0.5,11.8766,M,7.098,M,1.2,0004*77
$GPGGA,014305.30,3015.9423144,N,12007.1899306,E,4,31,0.5,11.8797,M,7.098,M,1.3,0004*73
$GPGGA,014305.40,3015.9423147,N,12007.1899294,E,4,31,0.5,11.8753,M,7.098,M,0.4,0004*73
$GPGGA,014305.50,3015.9423147,N,12007.1899295,E,4,31,0.5,11.8786,M,7.098,M,0.5,0004*7A
$GPGGA,014305.60,3015.9423151,N,12007.1899294,E,4,31,0.5,11.8791,M,7.098,M,0.6,0004*7A
$GPGGA,014305.70,3015.9423146,N,12007.1899295,E,4,31,0.5,11.8824,M,7.098,M,0.7,0004*7C
$GPGGA,014305.80,3015.9423141,N,12007.1899296,E,4,31,0.5,11.8761,M,7.098,M,0.8,0004*76
$GPGGA,014305.90,3015.9423148,N,12007.1899296,E,4,31,0.5,11.8784,M,7.098,M,0.9,0004*74
$GPGGA,014306.00,3015.9423141,N,12007.1899297,E,4,31,0.5,11.8831,M,7.098,M,1.0,0004*7F
$GPGGA,014306.10,3015.9423136,N,12007.1899293,E,4,31,0.5,11.8842,M,7.098,M,1.1,0004*7F
$GPGGA,014306.20,3015.9423135,N,12007.1899297,E,4,31,0.5,11.8830,M,7.098,M,1.2,0004*7D
$GPGGA,014306.30,3015.9423142,N,12007.1899299,E,4,31,0.5,11.8793,M,7.098,M,0.3,0004*74
$GPGGA,014306.40,3015.9423138,N,12007.1899299,E,4,31,0.5,11.8832,M,7.098,M,0.4,0004*7D
$GPGGA,014306.50,3015.9423143,N,12007.1899304,E,4,31,0.5,11.8795,M,7.098,M,0.5,0004*76
$GPGGA,014306.60,3015.9423138,N,12007.1899303,E,4,31,0.5,11.8816,M,7.098,M,0.6,0004*79
$GPGGA,014306.70,3015.9423139,N,12007.1899296,E,4,31,0.5,11.8822,M,7.098,M,0.7,0004*72
$GPGGA,014306.80,3015.9423143,N,12007.1899305,E,4,31,0.5,11.8802,M,7.098,M,0.8,0004*76
$GPGGA,014306.90,3015.9423142,N,12007.1899306,E,4,31,0.5,11.8810,M,7.098,M,0.9,0004*77
$GPGGA,014307.00,3015.9423138,N,12007.1899299,E,4,31,0.5,11.8808,M,7.098,M,1.0,0004*74
$GPGGA,014307.10,3015.9423142,N,12007.1899301,E,4,31,0.5,11.8807,M,7.098,M,0.1,0004*77
$GPGGA,014307.20,3015.9423136,N,12007.1899301,E,4,31,0.5,11.8808,M,7.098,M,0.2,0004*7B
$GPGGA,014307.30,3015.9423137,N,12007.1899292,E,4,31,0.5,11.8853,M,7.098,M,0.3,0004*7F
$GPGGA,014307.40,3015.9423149,N,12007.1899294,E,4,31,0.5,11.8840,M,7.098,M,0.4,0004*72
$GPGGA,014307.50,3015.9423135,N,12007.1899292,E,4,31,0.5,11.8846,M,7.098,M,0.5,0004*79
$GPGGA,014307.60,3015.9423144,N,12007.1899291,E,4,31,0.5,11.8818,M,7.098,M,0.6,0004*77
$GPGGA,014307.70,3015.9423141,N,12007.1899293,E,4,31,0.5,11.8818,M,7.098,M,0.7,0004*70
$GPGGA,014307.80,3015.9423140,N,12007.1899297,E,4,31,0.5,11.8837,M,7.098,M,0.8,0004*78
$GPGGA,014307.90,3015.9423137,N,12007.1899289,E,4,31,0.5,11.8862,M,7.098,M,0.9,0004*77
$GPGGA,014308.00,3015.9423148,N,12007.1899285,E,4,31,0.5,11.8824,M,7.098,M,1.0,0004*7F
$GPGGA,014308.10,3015.9423155,N,12007.1899289,E,4,31,0.5,11.8771,M,7.098,M,0.1,0004*71
$GPGGA,014308.20,3015.9423152,N,12007.1899279,E,4,31,0.5,11.8813,M,7.098,M,0.2,0004*72
$GPGGA,014308.30,3015.9423154,N,12007.1899277,E,4,31,0.5,11.8829,M,7.098,M,0.3,0004*73
$GPGGA,014308.40,3015.9423142,N,12007.1899278,E,4,31,0.5,11.8825,M,7.098,M,0.4,0004*77
$GPGGA,014308.50,3015.9423140,N,12007.1899277,E,4,31,0.5,11.8830,M,7.098,M,0.5,0004*7E
$GPGGA,014308.60,3015.9423142,N,12007.1899277,E,4,31,0.5,11.8836,M,7.098,M,0.6,0004*7A
$GPGGA,014308.70,3015.9423137,N,12007.1899276,E,4,31,0.5,11.8838,M,7.098,M,0.7,0004*77
$GPGGA,014308.80,3015.9423133,N,12007.1899276,E,4,31,0.5,11.8870,M,7.098,M,0.8,0004*7F
$GPGGA,014308.90,3015.9423137,N,12007.1899282,E,4,31,0.5,11.8861,M,7.098,M,0.9,0004*70
$GPGGA,014309.00,3015.9423137,N,12007.1899280,E,4,31,0.5,11.8884,M,7.098,M,1.0,0004*79
$GPGGA,014309.10,3015.9423138,N,12007.1899282,E,4,31,0.5,11.8822,M,7.098,M,0.1,0004*79
$GPGGA,014309.20,3015.9423138,N,12007.1899277,E,4,31,0.5,11.8915,M,7.098,M,0.2,0004*76
$GPGGA,014309.30,3015.9423146,N,12007.1899280,E,4,31,0.5,11.8917,M,7.098,M,0.3,0004*75
$GPGGA,014309.40,3015.9423146,N,12007.1899280,E,4,31,0.5,11.8932,M,7.098,M,0.4,0004*72
$GPGGA,014309.50,3015.9423143,N,12007.1899275,E,4,31,0.5,11.8907,M,7.098,M,0.5,0004*7B
$GPGGA,014309.60,3015.9423146,N,12007.1899284,E,4,31,0.5,11.8926,M,7.098,M,0.6,0004*73
$GPGGA,014309.70,3015.9423141,N,12007.1899276,E,4,31,0.5,11.8934,M,7.098,M,0.7,0004*7A
$GPGGA,014309.80,3015.9423141,N,12007.1899280,E,4,31,0.5,11.8935,M,7.098,M,0.8,0004*72
$GPGGA,014309.90,3015.9423145,N,12007.1899281,E,4,31,0.5,11.8909,M,7.098,M,0.9,0004*78
$GPGGA,014310.00,3015.9423144,N,12007.1899281,E,4,31,0.5,11.8919,M,7.098,M,1.0,0004*71
$GPGGA,014310.10,3015.9423138,N,12007.1899276,E,4,31,0.5,11.8953,M,7.098,M,0.1,0004*7D
$GPGGA,014310.20,3015.9423149,N,12007.1899280,E,4,31,0.5,11.8899,M,7.098,M,0.2,0004*75
$GPGGA,014310.30,3015.9423152,N,12007.1899286,E,4,31,0.5,11.8853,M,7.098,M,0.3,0004*7F
$GPGGA,014310.40,3015.9423146,N,12007.1899285,E,4,32,0.5,11.8861,M,7.098,M,0.4,0004*7B
$GPGGA,014310.50,3015.9423149,N,12007.1899290,E,4,32,0.5,11.8893,M,7.098,M,0.5,0004*7D
$GPGGA,014310.60,3015.9423144,N,12007.1899287,E,4,31,0.5,11.8872,M,7.098,M,0.6,0004*7A
$GPGGA,014310.70,3015.9423153,N,12007.1899279,E,4,31,0.5,11.8845,M,7.098,M,0.7,0004*79
$GPGGA,014310.80,3015.9423152,N,12007.1899284,E,4,31,0.5,11.8879,M,7.098,M,0.8,0004*75
$GPGGA,014310.90,3015.9423157,N,12007.1899288,E,4,31,0.5,11.8838,M,7.098,M,0.9,0004*79
$GPGGA,014311.00,3015.9423144,N,12007.1899289,E,4,31,0.5,11.8881,M,7.098,M,1.0,0004*78
$GPGGA,014311.10,3015.9423151,N,12007.1899285,E,4,31,0.5,11.8875,M,7.098,M,0.1,0004*7A
$GPGGA,014311.20,3015.9423149,N,12007.1899286,E,4,31,0.5,11.8877,M,7.098,M,0.2,0004*72
$GPGGA,014311.30,3015.9423146,N,12007.1899277,E,4,31,0.5,11.8872,M,7.098,M,0.3,0004*76
$GPGGA,014311.40,3015.9423148,N,12007.1899280,E,4,31,0.5,11.8882,M,7.098,M,0.4,0004*7F
$GPGGA,014311.50,3015.9423150,N,12007.1899285,E,4,31,0.5,11.8856,M,7.098,M,0.5,0004*7A
$GPGGA,014311.60,3015.9423146,N,12007.1899278,E,4,32,0.5,11.8906,M,7.098,M,0.6,0004*78
$GPGGA,014311.70,3015.9423148,N,12007.1899283,E,4,32,0.5,11.8873,M,7.098,M,0.7,0004*71
$GPGGA,014311.80,3015.9423141,N,12007.1899283,E,4,31,0.5,11.8893,M,7.098,M,0.8,0004*75
$GPGGA,014311.90,3015.9423142,N,12007.1899284,E,4,31,0.5,11.8887,M,7.098,M,0.9,0004*74
$GPGGA,014312.00,3015.9423145,N,12007.1899287,E,4,31,0.5,11.8863,M,7.098,M,1.0,0004*78
$GPGGA,014312.10,3015.9423149,N,12007.1899279,E,4,31,0.5,11.8869,M,7.098,M,0.1,0004*7E
$GPGGA,014312.20,3015.9423147,N,12007.1899282,E,4,31,0.5,11.8852,M,7.098,M,0.2,0004*7C
$GPGGA,014312.30,3015.9423148,N,12007.1899283,E,4,31,0.5,11.8845,M,7.098,M,0.3,0004*74
$GPGGA,014312.40,3015.9423148,N,12007.1899281,E,4,31,0.5,11.8816,M,7.098,M,0.4,0004*70
$GPGGA,014312.50,3015.9423146,N,12007.1899286,E,4,31,0.5,11.8830,M,7.098,M,0.5,0004*7D
$GPGGA,014312.60,3015.9423149,N,12007.1899285,E,4,31,0.5,11.8855,M,7.098,M,0.6,0004*72
$GPGGA,014312.70,3015.9423154,N,12007.1899290,E,4,31,0.5,11.8813,M,7.098,M,0.7,0004*78
$GPGGA,014312.80,3015.9423144,N,12007.1899281,E,4,31,0.5,11.8857,M,7.098,M,0.8,0004*79
$GPGGA,014312.90,3015.9423155,N,12007.1899290,E,4,31,0.5,11.8827,M,7.098,M,0.9,0004*7E
$GPGGA,014313.00,3015.9423143,N,12007.1899295,E,4,31,0.5,11.8825,M,7.098,M,1.0,0004*7E
$GPGGA,014313.10,3015.9423148,N,12007.1899291,E,4,31,0.5,11.8810,M,7.098,M,0.1,0004*76
$GPGGA,014313.20,3015.9423155,N,12007.1899282,E,4,31,0.5,11.8848,M,7.098,M,0.2,0004*75
$GPGGA,014313.30,3015.9423155,N,12007.1899285,E,4,31,0.5,11.8811,M,7.098,M,0.3,0004*7E
$GPGGA,014313.40,3015.9423147,N,12007.1899289,E,4,31,0.5,11.8866,M,7.098,M,0.4,0004*71
$GPGGA,014313.50,3015.9423152,N,12007.1899286,E,4,31,0.5,11.8825,M,7.098,M,0.5,0004*7D
$GPGGA,014313.60,3015.9423148,N,12007.1899280,E,4,31,0.5,11.8828,M,7.098,M,0.6,0004*7D
$GPGGA,014313.70,3015.9423149,N,12007.1899292,E,4,31,0.5,11.8864,M,7.098,M,0.7,0004*77
$GPGGA,014313.80,3015.9423157,N,12007.1899294,E,4,31,0.5,11.8822,M,7.098,M,0.8,0004*7C
$GPGGA,014313.90,3015.9423149,N,12007.1899284,E,4,31,0.5,11.8861,M,7.098,M,0.9,0004*75
$GPGGA,014314.00,3015.9423159,N,12007.1899295,E,4,31,0.5,11.8833,M,7.098,M,1.0,0004*75
$GPGGA,014314.10,3015.9423149,N,12007.1899293,E,4,31,0.5,11.8853,M,7.098,M,1.1,0004*74
$GPGGA,014314.20,3015.9423149,N,12007.1899288,E,4,31,0.5,11.8888,M,7.098,M,0.2,0004*79
$GPGGA,014314.30,3015.9423144,N,12007.1899274,E,4,31,0.5,11.8889,M,7.098,M,0.3,0004*76
$GPGGA,014314.40,3015.9423154,N,12007.1899275,E,4,31,0.5,11.8859,M,7.098,M,0.4,0004*7B
$GPGGA,014314.50,3015.9423151,N,12007.1899280,E,4,31,0.5,11.8870,M,7.098,M,0.5,0004*7F
$GPGGA,014314.60,3015.9423148,N,12007.1899271,E,4,31,0.5,11.8905,M,7.098,M,0.6,0004*7A
$GPGGA,014314.70,3015.9423147,N,12007.1899271,E,4,31,0.5,11.8868,M,7.098,M,0.7,0004*7F
$GPGGA,014314.80,3015.9423148,N,12007.1899277,E,4,31,0.5,11.8912,M,7.098,M,0.8,0004*7A
$GPGGA,014314.90,3015.9423118,N,12007.1899291,E,4,31,0.5,11.8906,M,7.098,M,0.9,0004*72
$GPGGA,014315.00,3015.9423080,N,12007.1899296,E,4,31,0.5,11.8904,M,7.098,M,1.0,0004*77
$GPGGA,014315.10,3015.9423056,N,12007.1899286,E,4,31,0.5,11.8957,M,7.098,M,0.1,0004*7A
$GPGGA,014315.20,3015.9423039,N,12007.1899263,E,4,31,0.5,11.9018,M,7.098,M,0.2,0004*7B
$GPGGA,014315.30,3015.9422977,N,12007.1899219,E,4,31,0.5,11.9106,M,7.098,M,0.3,0004*7A
$GPGGA,014315.40,3015.9422944,N,12007.1899210,E,4,31,0.5,11.9227,M,7.098,M,0.4,0004*73
$GPGGA,014315.50,3015.9422883,N,12007.1899229,E,4,31,0.5,11.9213,M,7.098,M,0.5,0004*74
$GPGGA,014315.60,3015.9422800,N,12007.1899228,E,4,31,0.5,11.9169,M,7.098,M,0.6,0004*70
$GPGGA,014315.70,3015.9422689,N,12007.1899210,E,4,31,0.5,11.9238,M,7.098,M,0.7,0004*73
$GPGGA,014315.80,3015.9422593,N,12007.1899183,E,4,32,0.5,11.9277,M,7.098,M,0.8,0004*7A
$GPGGA,014315.90,3015.9422492,N,12007.1899163,E,4,32,0.5,11.9325,M,7.098,M,0.9,0004*72
$GPGGA,014316.00,3015.9422397,N,12007.1899123,E,4,32,0.5,11.9329,M,7.098,M,1.0,0004*7A
$GPGGA,014316.10,3015.9422301,N,12007.1899084,E,4,32,0.5,11.9383,M,7.098,M,0.1,0004*78
$GPGGA,014316.20,3015.9422195,N,12007.1899045,E,4,32,0.5,11.9337,M,7.098,M,0.2,0004*75
$GPGGA,014316.30,3015.9422108,N,12007.1899014,E,4,32,0.5,11.9322,M,7.098,M,0.3,0004*71
$GPGGA,014316.40,3015.9422033,N,12007.1898976,E,4,31,0.5,11.9240,M,7.098,M,0.4,0004*72
$GPGGA,014316.50,3015.9421983,N,12007.1898966,E,4,30,0.5,11.9089,M,7.098,M,0.5,0004*74
$GPGGA,014316.60,3015.9421932,N,12007.1898940,E,4,29,0.5,11.9083,M,7.098,M,0.6,0004*78
$GPGGA,014316.70,3015.9421892,N,12007.1898935,E,4,29,0.5,11.9042,M,7.098,M,0.7,0004*7C
$GPGGA,014316.80,3015.9421838,N,12007.1898904,E,4,28,0.5,11.8990,M,7.098,M,0.8,0004*78
$GPGGA,014316.90,3015.9421794,N,12007.1898899,E,4,29,0.5,11.8927,M,7.098,M,0.9,0004*79
$GPGGA,014317.00,3015.9421778,N,12007.1898895,E,4,29,0.5,11.8894,M,7.098,M,1.0,0004*7E
$GPGGA,014317.10,3015.9421765,N,12007.1898892,E,4,28,0.5,11.8889,M,7.098,M,0.1,0004*79
$GPGGA,014317.20,3015.9421734,N,12007.1898891,E,4,28,0.5,11.8811,M,7.098,M,0.2,0004*7F
$GPGGA,014317.30,3015.9421725,N,12007.1898881,E,4,28,0.5,11.8841,M,7.098,M,0.3,0004*7B
$GPGGA,014317.40,3015.9421716,N,12007.1898868,E,4,28,0.5,11.8846,M,7.098,M,0.4,0004*7B
$GPGGA,014317.50,3015.9421698,N,12007.1898845,E,4,28,0.5,11.8791,M,7.098,M,0.5,0004*76
$GPGGA,014317.60,3015.9421661,N,12007.1898811,E,4,28,0.5,11.8814,M,7.098,M,0.6,0004*73
$GPGGA,014317.70,3015.9421631,N,12007.1898786,E,4,28,0.5,11.8801,M,7.098,M,0.7,0004*73
$GPGGA,014317.80,3015.9421630,N,12007.1898796,E,4,27,0.5,11.8783,M,7.098,M,0.8,0004*79
$GPGGA,014317.90,3015.9421608,N,12007.1898782,E,4,28,0.5,11.8808,M,7.098,M,0.9,0004*74
$GPGGA,014318.00,3015.9421585,N,12007.1898768,E,4,28,0.6,11.8792,M,7.098,M,1.0,0004*77
$GPGGA,014318.10,3015.9421574,N,12007.1898763,E,4,26,0.6,11.8771,M,7.098,M,0.1,0004*70
$GPGGA,014318.20,3015.9421564,N,12007.1898752,E,4,26,0.6,11.8800,M,7.098,M,0.2,0004*7A
$GPGGA,014318.30,3015.9421529,N,12007.1898733,E,4,26,0.6,11.8780,M,7.098,M,0.3,0004*73
$GPGGA,014318.40,3015.9421516,N,12007.1898699,E,4,26,0.6,11.8693,M,7.098,M,0.4,0004*7D
$GPGGA,014318.50,3015.9421508,N,12007.1898702,E,4,26,0.6,11.8715,M,7.098,M,0.5,0004*7E
$GPGGA,014318.60,3015.9421508,N,12007.1898697,E,4,25,0.6,11.8716,M,7.098,M,0.6,0004*73
$GPGGA,014318.70,3015.9421490,N,12007.1898688,E,4,25,0.6,11.8664,M,7.098,M,0.7,0004*79
$GPGGA,014318.80,3015.9421484,N,12007.1898675,E,4,25,0.6,11.8709,M,7.098,M,0.8,0004*74
$GPGGA,014318.90,3015.9421499,N,12007.1898676,E,4,24,0.6,11.8702,M,7.098,M,0.9,0004*71
$GPGGA,014319.00,3015.9421502,N,12007.1898698,E,4,25,0.6,11.8701,M,7.098,M,1.0,0004*70
$GPGGA,014319.10,3015.9421504,N,12007.1898675,E,4,25,0.6,11.8723,M,7.098,M,1.1,0004*75
$GPGGA,014319.20,3015.9421502,N,12007.1898650,E,4,25,0.6,11.8720,M,7.098,M,0.2,0004*76
$GPGGA,014319.30,3015.9421488,N,12007.1898646,E,4,25,0.6,11.8702,M,7.098,M,0.3,0004*72
$GPGGA,014319.40,3015.9421502,N,12007.1898653,E,4,25,0.6,11.8756,M,7.098,M,0.4,0004*74
$GPGGA,014319.50,3015.9421506,N,12007.1898638,E,4,24,0.6,11.8755,M,7.098,M,0.5,0004*7F
$GPGGA,014319.60,3015.9421491,N,12007.1898628,E,4,25,0.6,11.8788,M,7.098,M,0.6,0004*70
$GPGGA,014319.70,3015.9421495,N,12007.1898619,E,4,25,0.6,11.8776,M,7.098,M,0.7,0004*77
$GPGGA,014319.80,3015.9421504,N,12007.1898622,E,4,25,0.6,11.8752,M,7.098,M,0.8,0004*70
$GPGGA,014319.90,3015.9421499,N,12007.1898610,E,4,25,0.6,11.8766,M,7.098,M,0.9,0004*73
$GPGGA,014320.00,3015.9421499,N,12007.1898609,E,4,25,0.6,11.8732,M,7.098,M,1.0,0004*71
$GPGGA,014320.10,3015.9421493,N,12007.1898611,E,4,25,0.6,11.8724,M,7.098,M,0.1,0004*74
$GPGGA,014320.20,3015.9421479,N,12007.1898636,E,4,25,0.6,11.8779,M,7.098,M,0.2,0004*7D
$GPGGA,014320.30,3015.9421480,N,12007.1898663,E,4,24,0.6,11.8756,M,7.098,M,0.3,0004*77
$GPGGA,014320.40,3015.9421481,N,12007.1898680,E,4,24,0.6,11.8730,M,7.098,M,0.4,0004*7B
$GPGGA,014320.50,3015.9421484,N,12007.1898652,E,4,24,0.6,11.8752,M,7.098,M,0.5,0004*75
$GPGGA,014320.60,3015.9421485,N,12007.1898670,E,4,24,0.6,11.8766,M,7.098,M,0.6,0004*73
$GPGGA,014320.70,3015.9421501,N,12007.1898682,E,4,25,0.6,11.8786,M,7.098,M,0.7,0004*7C
$GPGGA,014320.80,3015.9421498,N,12007.1898667,E,4,25,0.6,11.8761,M,7.098,M,0.8,0004*7F
$GPGGA,014320.90,3015.9421493,N,12007.1898670,E,4,25,0.6,11.8749,M,7.098,M,0.9,0004*78
$GPGGA,014321.00,3015.9421496,N,12007.1898673,E,4,25,0.6,11.8781,M,7.098,M,1.0,0004*7A
$GPGGA,014321.10,3015.9421481,N,12007.1898661,E,4,25,0.6,11.8775,M,7.098,M,0.1,0004*75
$GPGGA,014321.20,3015.9421492,N,12007.1898639,E,4,25,0.6,11.8760,M,7.098,M,0.2,0004*7E
$GPGGA,014321.30,3015.9421482,N,12007.1898650,E,4,26,0.6,11.8789,M,7.098,M,0.3,0004*74
$GPGGA,014321.40,3015.9421481,N,12007.1898640,E,4,26,0.6,11.8800,M,7.098,M,0.4,0004*78
$GPGGA,014321.50,3015.9421476,N,12007.1898647,E,4,26,0.6,11.8867,M,7.098,M,0.5,0004*76
$GPGGA,014321.60,3015.9421487,N,12007.1898651,E,4,25,0.6,11.8914,M,7.098,M,0.6,0004*79
$GPGGA,014321.70,3015.9421499,N,12007.1898660,E,4,24,0.6,11.8931,M,7.098,M,0.7,0004*72
$GPGGA,014321.80,3015.9421509,N,12007.1898667,E,4,24,0.6,11.8997,M,7.098,M,0.8,0004*71
$GPGGA,014321.90,3015.9421490,N,12007.1898657,E,4,24,0.6,11.9039,M,7.098,M,0.9,0004*7F
$GPGGA,014322.00,3015.9421458,N,12007.1898641,E,4,24,0.6,11.9082,M,7.098,M,1.0,0004*7E
$GPGGA,014322.10,3015.9421442,N,12007.1898630,E,4,24,0.6,11.9083,M,7.098,M,1.1,0004*72
$GPGGA,014322.20,3015.9421436,N,12007.1898608,E,4,23,0.6,11.9058,M,7.098,M,0.2,0004*7A
$GPGGA,014322.30,3015.9421439,N,12007.1898609,E,4,23,0.6,11.9117,M,7.098,M,0.3,0004*7E
$GPGGA,014322.40,3015.9421445,N,12007.1898623,E,4,23,0.6,11.9069,M,7.098,M,0.4,0004*75
$GPGGA,014322.50,3015.9421443,N,12007.1898617,E,4,23,0.6,11.9037,M,7.098,M,0.5,0004*7F
$GPGGA,014322.60,3015.9421445,N,12007.1898616,E,4,23,0.6,11.9061,M,7.098,M,0.6,0004*7B
$GPGGA,014322.70,3015.9421441,N,12007.1898616,E,4,23,0.6,11.9101,M,7.098,M,0.7,0004*78
$GPGGA,014322.80,3015.9421443,N,12007.1898626,E,4,23,0.6,11.9092,M,7.098,M,0.8,0004*72
$GPGGA,014322.90,3015.9421434,N,12007.1898615,E,4,23,0.6,11.9102,M,7.098,M,0.9,0004*7A
$GPGGA,014323.00,3015.9421439,N,12007.1898618,E,4,23,0.6,11.9044,M,7.098,M,1.0,0004*79
$GPGGA,014323.10,3015.9421443,N,12007.1898617,E,4,24,0.6,11.9084,M,7.098,M,0.1,0004*71
$GPGGA,014323.20,3015.9421435,N,12007.1898614,E,4,24,0.6,11.9102,M,7.098,M,0.2,0004*7C
$GPGGA,014323.30,3015.9421432,N,12007.1898617,E,4,24,0.6,11.9048,M,7.098,M,0.3,0004*77
$GPGGA,014323.40,3015.9421438,N,12007.1898618,E,4,26,0.6,11.9147,M,7.098,M,0.4,0004*7E
$GPGGA,014323.50,3015.9421451,N,12007.1898619,E,4,26,0.6,11.9090,M,7.098,M,0.5,0004*7B
$GPGGA,014323.60,3015.9421454,N,12007.1898624,E,4,26,0.6,11.9174,M,7.098,M,0.6,0004*7B
$GPGGA,014323.70,3015.9421450,N,12007.1898625,E,4,25,0.6,11.9082,M,7.098,M,0.7,0004*75
$GPGGA,014323.80,3015.9421464,N,12007.1898633,E,4,25,0.6,11.9075,M,7.098,M,0.8,0004*7D
$GPGGA,014323.90,3015.9421464,N,12007.1898630,E,4,25,0.6,11.9026,M,7.098,M,0.9,0004*78
$GPGGA,014324.00,3015.9421473,N,12007.1898632,E,4,24,0.6,11.9074,M,7.098,M,1.0,0004*7C
$GPGGA,014324.10,3015.9421473,N,12007.1898628,E,4,24,0.6,11.9060,M,7.098,M,0.1,0004*73
$GPGGA,014324.20,3015.9421476,N,12007.1898630,E,4,25,0.6,11.9098,M,7.098,M,0.2,0004*79
$GPGGA,014324.30,3015.9421473,N,12007.1898624,E,4,25,0.6,11.9096,M,7.098,M,0.3,0004*77
$GPGGA,014324.40,3015.9421475,N,12007.1898625,E,4,25,0.6,11.9081,M,7.098,M,0.4,0004*76
$GPGGA,014324.50,3015.9421474,N,12007.1898622,E,4,25,0.6,11.9070,M,7.098,M,0.5,0004*7E
$GPGGA,014324.60,3015.9421480,N,12007.1898628,E,4,25,0.6,11.9082,M,7.098,M,0.6,0004*72
$GPGGA,014324.70,3015.9421472,N,12007.1898626,E,4,24,0.6,11.9078,M,7.098,M,0.7,0004*75
$GPGGA,014324.80,3015.9421477,N,12007.1898623,E,4,24,0.6,11.9092,M,7.098,M,0.8,0004*71
$GPGGA,014324.90,3015.9421476,N,12007.1898616,E,4,24,0.6,11.9076,M,7.098,M,0.9,0004*7C
$GPGGA,014325.00,3015.9421481,N,12007.1898621,E,4,24,0.6,11.9092,M,7.098,M,1.0,0004*7A
$GPGGA,014325.10,3015.9421462,N,12007.1898620,E,4,24,0.6,11.9158,M,7.098,M,0.1,0004*70
$GPGGA,014325.20,3015.9421450,N,12007.1898608,E,4,24,0.6,11.9132,M,7.098,M,0.2,0004*77
$GPGGA,014325.30,3015.9421456,N,12007.1898615,E,4,24,0.6,11.9134,M,7.098,M,0.3,0004*7B
$GPGGA,014325.40,3015.9421453,N,12007.1898607,E,4,24,0.6,11.9143,M,7.098,M,0.4,0004*7D
$GPGGA,014325.50,3015.9421449,N,12007.1898617,E,4,24,0.6,11.9122,M,7.098,M,0.5,0004*70
$GPGGA,014325.60,3015.9421454,N,12007.1898612,E,4,24,0.6,11.9150,M,7.098,M,0.6,0004*7C
$GPGGA,014325.70,3015.9421456,N,12007.1898617,E,4,24,0.6,11.9141,M,7.098,M,0.7,0004*7B
$GPGGA,014325.80,3015.9421452,N,12007.1898613,E,4,24,0.6,11.9163,M,7.098,M,0.8,0004*7B
$GPGGA,014325.90,3015.9421460,N,12007.1898624,E,4,24,0.6,11.9168,M,7.098,M,0.9,0004*75
$GPGGA,014326.00,3015.9421451,N,12007.1898628,E,4,24,0.6,11.9146,M,7.098,M,1.0,0004*75
$GPGGA,014326.10,3015.9421454,N,12007.1898625,E,4,25,0.5,11.9143,M,7.098,M,0.1,0004*7B
$GPGGA,014326.20,3015.9421454,N,12007.1898616,E,4,25,0.6,11.9153,M,7.098,M,0.2,0004*79
$GPGGA,014326.30,3015.9421445,N,12007.1898620,E,4,24,0.6,11.9141,M,7.098,M,0.3,0004*7E
$GPGGA,014326.40,3015.9421448,N,12007.1898610,E,4,24,0.6,11.9152,M,7.098,M,0.4,0004*72
$GPGGA,014326.50,3015.9421454,N,12007.1898621,E,4,24,0.6,11.9129,M,7.098,M,0.5,0004*71
$GPGGA,014326.60,3015.9421460,N,12007.1898618,E,4,24,0.6,11.9138,M,7.098,M,0.6,0004*7C
$GPGGA,014326.70,3015.9421449,N,12007.1898611,E,4,24,0.6,11.9158,M,7.098,M,0.7,0004*78
$GPGGA,014326.80,3015.9421455,N,12007.1898611,E,4,23,0.6,11.9137,M,7.098,M,0.8,0004*7B
$GPGGA,014326.90,3015.9421455,N,12007.1898612,E,4,23,0.6,11.9114,M,7.098,M,0.9,0004*79
$GPGGA,014327.00,3015.9421449,N,12007.1898613,E,4,24,0.6,11.9164,M,7.098,M,1.0,0004*75
$GPGGA,014327.10,3015.9421449,N,12007.1898609,E,4,24,0.6,11.9104,M,7.098,M,0.1,0004*79
$GPGGA,014327.20,3015.9421459,N,12007.1898613,E,4,24,0.6,11.9093,M,7.098,M,0.2,0004*7C
$GPGGA,014327.30,3015.9421461,N,12007.1898611,E,4,24,0.6,11.9109,M,7.098,M,0.3,0004*77
$GPGGA,014327.40,3015.9421457,N,12007.1898607,E,4,23,0.6,11.9123,M,7.098,M,0.4,0004*7A
$GPGGA,014327.50,3015.9421457,N,12007.1898605,E,4,24,0.6,11.9122,M,7.098,M,0.5,0004*7E
$GPGGA,014327.60,3015.9421454,N,12007.1898606,E,4,26,0.6,11.9152,M,7.098,M,0.6,0004*7B
$GPGGA,014327.70,3015.9421455,N,12007.1898605,E,4,25,0.6,11.9108,M,7.098,M,0.7,0004*75
$GPGGA,014327.80,3015.9421453,N,12007.1898604,E,4,25,0.6,11.9162,M,7.098,M,0.8,0004*7E
$GPGGA,014327.90,3015.9421456,N,12007.1898594,E,4,26,0.6,11.9067,M,7.098,M,0.9,0004*76
$GPGGA,014328.00,3015.9421445,N,12007.1898582,E,4,25,0.6,11.9133,M,7.098,M,1.0,0004*7E
$GPGGA,014328.10,3015.9421455,N,12007.1898580,E,4,24,0.6,11.9098,M,7.098,M,0.1,0004*7D
$GPGGA,014328.20,3015.9421447,N,12007.1898579,E,4,25,0.6,11.9095,M,7.098,M,0.2,0004*74
$GPGGA,014328.30,3015.9421451,N,12007.1898572,E,4,25,0.6,11.9114,M,7.098,M,0.3,0004*70
$GPGGA,014328.40,3015.9421448,N,12007.1898584,E,4,24,0.6,11.9099,M,7.098,M,0.4,0004*74
$GPGGA,014328.50,3015.9421454,N,12007.1898574,E,4,23,0.6,11.9113,M,7.098,M,0.5,0004*72
$GPGGA,014328.60,3015.9421445,N,12007.1898586,E,4,24,0.6,11.9116,M,7.098,M,0.6,0004*7D
$GPGGA,014328.70,3015.9421456,N,12007.1898591,E,4,24,0.6,11.9126,M,7.098,M,0.7,0004*7A
$GPGGA,014328.80,3015.9421452,N,12007.1898589,E,4,23,0.6,11.9067,M,7.098,M,0.8,0004*74
$GPGGA,014328.90,3015.9421444,N,12007.1898585,E,4,24,0.6,11.9112,M,7.098,M,0.9,0004*7B
$GPGGA,014329.00,3015.9421445,N,12007.1898596,E,4,24,0.6,11.9090,M,7.098,M,1.0,0004*73
$GPGGA,014329.10,3015.9421446,N,12007.1898588,E,4,23,0.6,11.9098,M,7.098,M,0.1,0004*71
$GPGGA,014329.20,3015.9421446,N,12007.1898582,E,4,23,0.6,11.9129,M,7.098,M,0.2,0004*70
$GPGGA,014329.30,3015.9421440,N,12007.1898580,E,4,24,0.6,11.9107,M,7.098,M,0.3,0004*7F
$GPGGA,014329.40,3015.9421440,N,12007.1898578,E,4,24,0.6,11.9125,M,7.098,M,0.4,0004*78
$GPGGA,014329.50,3015.9421445,N,12007.1898578,E,4,23,0.6,11.9131,M,7.098,M,0.5,0004*7F
$GPGGA,014329.60,3015.9421443,N,12007.1898576,E,4,23,0.6,11.9110,M,7.098,M,0.6,0004*74
$GPGGA,014329.70,3015.9421451,N,12007.1898580,E,4,23,0.6,11.9086,M,7.098,M,0.7,0004*70
$GPGGA,014329.80,3015.9421445,N,12007.1898583,E,4,23,0.6,11.9089,M,7.098,M,0.8,0004*79
$GPGGA,014329.90,3015.9421452,N,12007.1898587,E,4,24,0.6,11.9110,M,7.098,M,0.9,0004*7D
$GPGGA,014330.00,3015.9421452,N,12007.1898586,E,4,24,0.6,11.9073,M,7.098,M,1.0,0004*71
$GPGGA,014330.10,3015.9421444,N,12007.1898583,E,4,23,0.6,11.9101,M,7.098,M,0.1,0004*71
$GPGGA,014330.20,3015.9421440,N,12007.1898585,E,4,23,0.6,11.9113,M,7.098,M,0.2,0004*70
$GPGGA,014330.30,3015.9421444,N,12007.1898576,E,4,23,0.6,11.9175,M,7.098,M,0.3,0004*78
$GPGGA,014330.40,3015.9421439,N,12007.1898585,E,4,23,0.6,11.9171,M,7.098,M,0.4,0004*7A
$GPGGA,014330.50,3015.9421441,N,12007.1898585,E,4,23,0.6,11.9176,M,7.098,M,0.5,0004*72
$GPGGA,014330.60,3015.9421433,N,12007.1898586,E,4,23,0.6,11.9123,M,7.098,M,0.6,0004*74
$GPGGA,014330.70,3015.9421446,N,12007.1898582,E,4,23,0.6,11.9177,M,7.098,M,0.7,0004*73
$GPGGA,014330.80,3015.9421440,N,12007.1898580,E,4,23,0.6,11.9172,M,7.098,M,0.8,0004*72
$GPGGA,014330.90,3015.9421441,N,12007.1898584,E,4,23,0.6,11.9128,M,7.098,M,0.9,0004*78
$GPGGA,014331.00,3015.9421437,N,12007.1898583,E,4,23,0.6,11.9166,M,7.098,M,1.0,0004*74
$GPGGA,014331.10,3015.9421449,N,12007.1898590,E,4,23,0.6,11.9122,M,7.098,M,0.1,0004*7E
$GPGGA,014331.20,3015.9421435,N,12007.1898584,E,4,23,0.6,11.9102,M,7.098,M,0.2,0004*72
$GPGGA,014331.30,3015.9421437,N,12007.1898587,E,4,23,0.6,11.9115,M,7.098,M,0.3,0004*75
$GPGGA,014331.40,3015.9421424,N,12007.1898578,E,4,23,0.6,11.9092,M,7.098,M,0.4,0004*79
$GPGGA,014331.50,3015.9421427,N,12007.1898578,E,4,24,0.6,11.9164,M,7.098,M,0.5,0004*75
$GPGGA,014331.60,3015.9421432,N,12007.1898588,E,4,24,0.6,11.9136,M,7.098,M,0.6,0004*79
$GPGGA,014331.70,3015.9421424,N,12007.1898581,E,4,24,0.6,11.9141,M,7.098,M,0.7,0004*77
$GPGGA,014331.80,3015.9421418,N,12007.1898588,E,4,24,0.6,11.9143,M,7.098,M,0.8,0004*73
$GPGGA,014331.90,3015.9421412,N,12007.1898585,E,4,24,0.6,11.9124,M,7.098,M,0.9,0004*75
$GPGGA,014332.00,3015.9421423,N,12007.1898591,E,4,24,0.6,11.9128,M,7.098,M,1.0,0004*7C
$GPGGA,014332.10,3015.9421423,N,12007.1898588,E,4,24,0.6,11.9187,M,7.098,M,0.1,0004*70
$GPGGA,014332.20,3015.9421414,N,12007.1898577,E,4,24,0.6,11.9184,M,7.098,M,0.2,0004*77
$GPGGA,014332.30,3015.9421415,N,12007.1898586,E,4,24,0.6,11.9163,M,7.098,M,0.3,0004*71
$GPGGA,014332.40,3015.9421419,N,12007.1898574,E,4,24,0.6,11.9152,M,7.098,M,0.4,0004*72
$GPGGA,014332.50,3015.9421413,N,12007.1898585,E,4,24,0.6,11.9163,M,7.098,M,0.5,0004*74
$GPGGA,014332.60,3015.9421413,N,12007.1898577,E,4,24,0.6,11.9147,M,7.098,M,0.6,0004*7F
$GPGGA,014332.70,3015.9421424,N,12007.1898587,E,4,24,0.6,11.9154,M,7.098,M,0.7,0004*76
$GPGGA,014332.80,3015.9421416,N,12007.1898578,E,4,24,0.6,11.9157,M,7.098,M,0.8,0004*74
$GPGGA,014332.90,3015.9421420,N,12007.1898574,E,4,24,0.6,11.9124,M,7.098,M,0.9,0004*79
$GPGGA,014333.00,3015.9421430,N,12007.1898579,E,4,24,0.6,11.9140,M,7.098,M,1.0,0004*77
$GPGGA,014333.10,3015.9421428,N,12007.1898577,E,4,24,0.6,11.9102,M,7.098,M,0.1,0004*77
$GPGGA,014333.20,3015.9421436,N,12007.1898592,E,4,24,0.6,11.9099,M,7.098,M,0.2,0004*70
$GPGGA,014333.30,3015.9421437,N,12007.1898597,E,4,24,0.6,11.9076,M,7.098,M,0.3,0004*75
$GPGGA,014333.40,3015.9421439,N,12007.1898606,E,4,23,0.6,11.9128,M,7.098,M,0.4,0004*7D
$GPGGA,014333.50,3015.9421434,N,12007.1898603,E,4,23,0.6,11.9090,M,7.098,M,0.5,0004*77
$GPGGA,014333.60,3015.9421437,N,12007.1898607,E,4,23,0.6,11.9130,M,7.098,M,0.6,0004*7B
$GPGGA,014333.70,3015.9421428,N,12007.1898602,E,4,23,0.6,11.9103,M,7.098,M,0.7,0004*70
$GPGGA,014333.80,3015.9421437,N,12007.1898605,E,4,23,0.6,11.9099,M,7.098,M,0.8,0004*7B
$GPGGA,014333.90,3015.9421433,N,12007.1898609,E,4,23,0.6,11.9095,M,7.098,M,0.9,0004*7F
$GPGGA,014334.00,3015.9421435,N,12007.1898604,E,4,23,0.6,11.9130,M,7.098,M,1.0,0004*7C
$GPGGA,014334.10,3015.9421430,N,12007.1898609,E,4,23,0.6,11.9104,M,7.098,M,0.1,0004*72
$GPGGA,014334.20,3015.9421436,N,12007.1898600,E,4,23,0.6,11.9088,M,7.098,M,0.2,0004*78
$GPGGA,014334.30,3015.9421433,N,12007.1898601,E,4,23,0.6,11.9075,M,7.098,M,0.3,0004*7E
$GPGGA,014334.40,3015.9421432,N,12007.1898603,E,4,23,0.6,11.9078,M,7.098,M,0.4,0004*70
$GPGGA,014334.50,3015.9421430,N,12007.1898611,E,4,23,0.6,11.9101,M,7.098,M,0.5,0004*7E
$GPGGA,014334.60,3015.9421431,N,12007.1898601,E,4,23,0.6,11.9094,M,7.098,M,0.6,0004*73
$GPGGA,014334.70,3015.9421428,N,12007.1898603,E,4,23,0.6,11.9127,M,7.098,M,0.7,0004*70
$GPGGA,014334.80,3015.9421433,N,12007.1898603,E,4,23,0.6,11.9078,M,7.098,M,0.8,0004*71
$GPGGA,014334.90,3015.9421434,N,12007.1898607,E,4,23,0.6,11.9085,M,7.098,M,0.9,0004*70
$GPGGA,014335.00,3015.9421431,N,12007.1898596,E,4,23,0.6,11.9090,M,7.098,M,1.0,0004*7A
$GPGGA,014335.10,3015.9421427,N,12007.1898603,E,4,23,0.6,11.9112,M,7.098,M,0.1,0004*78
$GPGGA,014335.20,3015.9421424,N,12007.1898602,E,4,23,0.6,11.9153,M,7.098,M,0.2,0004*7F
$GPGGA,014335.30,3015.9421424,N,12007.1898603,E,4,23,0.6,11.9144,M,7.098,M,0.3,0004*78
$GPGGA,014335.40,3015.9421429,N,12007.1898601,E,4,23,0.6,11.9133,M,7.098,M,0.4,0004*77
$GPGGA,014335.50,3015.9421424,N,12007.1898600,E,4,23,0.6,11.9140,M,7.098,M,0.5,0004*7F
$GPGGA,014335.60,3015.9421424,N,12007.1898611,E,4,23,0.6,11.9104,M,7.098,M,0.6,0004*7F
$GPGGA,014335.70,3015.9421423,N,12007.1898610,E,4,23,0.6,11.9084,M,7.098,M,0.7,0004*70
$GPGGA,014335.80,3015.9421421,N,12007.1898605,E,4,23,0.6,11.9133,M,7.098,M,0.8,0004*7B
$GPGGA,014335.90,3015.9421417,N,12007.1898610,E,4,23,0.6,11.9122,M,7.098,M,0.9,0004*7A
$GPGGA,014336.00,3015.9421424,N,12007.1898605,E,4,23,0.6,11.9149,M,7.098,M,1.0,0004*71
$GPGGA,014336.10,3015.9421417,N,12007.1898612,E,4,23,0.6,11.9073,M,7.098,M,0.1,0004*7E
$GPGGA,014336.20,3015.9421427,N,12007.1898621,E,4,23,0.6,11.9077,M,7.098,M,0.2,0004*79
$GPGGA,014336.30,3015.9421423,N,12007.1898622,E,4,23,0.6,11.9027,M,7.098,M,0.3,0004*7B
$GPGGA,014336.40,3015.9421421,N,12007.1898620,E,4,23,0.6,11.9015,M,7.098,M,0.4,0004*7A
$GPGGA,014336.50,3015.9421428,N,12007.1898625,E,4,23,0.6,11.9048,M,7.098,M,0.5,0004*7E
$GPGGA,014336.60,3015.9421417,N,12007.1898616,E,4,22,0.6,11.9039,M,7.098,M,0.6,0004*75
$GPGGA,014336.70,3015.9421426,N,12007.1898616,E,4,23,0.6,11.9078,M,7.098,M,0.7,0004*73
$GPGGA,014336.80,3015.9421411,N,12007.1898623,E,4,23,0.6,11.9049,M,7.098,M,0.8,0004*73
$GPGGA,014336.90,3015.9421411,N,12007.1898618,E,4,23,0.6,11.9056,M,7.098,M,0.9,0004*75
$GPGGA,014337.00,3015.9421413,N,12007.1898619,E,4,23,0.6,11.9074,M,7.098,M,1.0,0004*76
$GPGGA,014337.10,3015.9421409,N,12007.1898620,E,4,23,0.6,11.9053,M,7.098,M,0.1,0004*73
$GPGGA,014337.20,3015.9421422,N,12007.1898617,E,4,23,0.6,11.9042,M,7.098,M,0.2,0004*7E
$GPGGA,014337.30,3015.9421412,N,12007.1898617,E,4,23,0.6,11.9053,M,7.098,M,0.3,0004*7D
$GPGGA,014337.40,3015.9421415,N,12007.1898611,E,4,23,0.6,11.9059,M,7.098,M,0.4,0004*76
$GPGGA,014337.50,3015.9421422,N,12007.1898638,E,4,23,0.6,11.9101,M,7.098,M,0.5,0004*75
$GPGGA,014337.60,3015.9421418,N,12007.1898625,E,4,23,0.6,11.9076,M,7.098,M,0.6,0004*71
$GPGGA,014337.70,3015.9421415,N,12007.1898623,E,4,23,0.6,11.9077,M,7.098,M,0.7,0004*7B
$GPGGA,014337.80,3015.9421418,N,12007.1898614,E,4,23,0.6,11.9091,M,7.098,M,0.8,0004*7A
$GPGGA,014337.90,3015.9421415,N,12007.1898613,E,4,23,0.6,11.9102,M,7.098,M,0.9,0004*7B
$GPGGA,014338.00,3015.9421409,N,12007.1898619,E,4,23,0.6,11.9082,M,7.098,M,1.0,0004*7B
$GPGGA,014338.10,3015.9421409,N,12007.1898611,E,4,23,0.6,11.9110,M,7.098,M,0.1,0004*78
$GPGGA,014338.20,3015.9421410,N,12007.1898603,E,4,23,0.6,11.9116,M,7.098,M,0.2,0004*75
$GPGGA,014338.30,3015.9421412,N,12007.1898609,E,4,23,0.6,11.9124,M,7.098,M,0.3,0004*7C
$GPGGA,014338.40,3015.9421405,N,12007.1898602,E,4,23,0.6,11.9099,M,7.098,M,0.4,0004*76
$GPGGA,014338.50,3015.9421398,N,12007.1898595,E,4,23,0.6,11.9106,M,7.098,M,0.5,0004*7F
$GPGGA,014338.60,3015.9421403,N,12007.1898596,E,4,23,0.6,11.9104,M,7.098,M,0.6,0004*7B
$GPGGA,014338.70,3015.9421409,N,12007.1898605,E,4,23,0.6,11.9145,M,7.098,M,0.7,0004*7D
$GPGGA,014338.80,3015.9421403,N,12007.1898600,E,4,23,0.6,11.9140,M,7.098,M,0.8,0004*77
$GPGGA,014338.90,3015.9421413,N,12007.1898610,E,4,23,0.6,11.9123,M,7.098,M,0.9,0004*72
$GPGGA,014339.00,3015.9421410,N,12007.1898604,E,4,23,0.6,11.9093,M,7.098,M,1.0,0004*7E
$GPGGA,014339.10,3015.9421419,N,12007.1898608,E,4,23,0.6,11.9080,M,7.098,M,0.1,0004*78
$GPGGA,014339.20,3015.9421425,N,12007.1898621,E,4,23,0.6,11.9136,M,7.098,M,0.2,0004*70
$GPGGA,014339.30,3015.9421445,N,12007.1898652,E,4,23,0.6,11.9126,M,7.098,M,0.3,0004*73
$GPGGA,014339.40,3015.9421459,N,12007.1898685,E,4,23,0.6,11.9119,M,7.098,M,0.4,0004*78
$GPGGA,014339.50,3015.9421443,N,12007.1898744,E,4,23,0.6,11.9212,M,7.098,M,0.5,0004*77
$GPGGA,014339.60,3015.9421487,N,12007.1898908,E,4,24,0.6,11.9268,M,7.098,M,0.6,0004*73
$GPGGA,014339.70,3015.9421494,N,12007.1899089,E,4,24,0.6,11.9267,M,7.098,M,0.7,0004*7F
$GPGGA,014339.80,3015.9421438,N,12007.1899225,E,4,24,0.6,11.9408,M,7.098,M,0.8,0004*72
$GPGGA,014339.90,3015.9421432,N,12007.1899361,E,4,24,0.6,11.9518,M,7.098,M,0.9,0004*79
$GPGGA,014340.00,3015.9421384,N,12007.1899519,E,4,23,0.6,11.9647,M,7.098,M,1.0,0004*7B
$GPGGA,014340.10,3015.9421325,N,12007.1899641,E,4,23,0.6,11.9750,M,7.098,M,0.1,0004*78
$GPGGA,014340.20,3015.9421251,N,12007.1899749,E,4,23,0.6,11.9789,M,7.098,M,0.2,0004*77
$GPGGA,014340.30,3015.9421182,N,12007.1899871,E,4,23,0.6,11.9822,M,7.098,M,0.3,0004*70
$GPGGA,014340.40,3015.9421123,N,12007.1900014,E,4,23,0.6,11.9841,M,7.098,M,0.4,0004*74
$GPGGA,014340.50,3015.9421026,N,12007.1900120,E,4,23,0.6,11.9777,M,7.098,M,0.5,0004*7C
$GPGGA,014340.60,3015.9420965,N,12007.1900306,E,4,24,0.6,11.9682,M,7.098,M,0.6,0004*79
$GPGGA,014340.70,3015.9420875,N,12007.1900469,E,4,24,0.6,11.9753,M,7.098,M,0.7,0004*7A
$GPGGA,014340.80,3015.9420774,N,12007.1900529,E,4,24,0.6,11.9684,M,7.098,M,0.8,0004*7A
$GPGGA,014340.90,3015.9420724,N,12007.1900628,E,4,25,0.5,11.9692,M,7.098,M,0.9,0004*78
$GPGGA,014341.00,3015.9420658,N,12007.1900656,E,4,25,0.5,11.9654,M,7.098,M,1.0,0004*71
$GPGGA,014341.10,3015.9420631,N,12007.1900737,E,4,25,0.5,11.9607,M,7.098,M,0.1,0004*7F
$GPGGA,014341.20,3015.9420627,N,12007.1900771,E,4,25,0.5,11.9517,M,7.098,M,0.2,0004*78
$GPGGA,014341.30,3015.9420627,N,12007.1900741,E,4,26,0.5,11.9486,M,7.098,M,0.3,0004*71
$GPGGA,014341.40,3015.9420658,N,12007.1900727,E,4,26,0.5,11.9423,M,7.098,M,0.4,0004*76
$GPGGA,014341.50,3015.9420680,N,12007.1900736,E,4,26,0.5,11.9411,M,7.098,M,0.5,0004*72
$GPGGA,014341.60,3015.9420696,N,12007.1900723,E,4,26,0.5,11.9404,M,7.098,M,0.6,0004*75
$GPGGA,014341.70,3015.9420721,N,12007.1900720,E,4,26,0.5,11.9378,M,7.098,M,0.7,0004*77
$GPGGA,014341.80,3015.9420737,N,12007.1900677,E,4,26,0.5,11.9357,M,7.098,M,0.8,0004*7E
$GPGGA,014341.90,3015.9420749,N,12007.1900674,E,4,26,0.5,11.9318,M,7.098,M,0.9,0004*7F
$GPGGA,014342.00,3015.9420772,N,12007.1900649,E,4,26,0.5,11.9267,M,7.098,M,1.0,0004*72
$GPGGA,014342.10,3015.9420785,N,12007.1900618,E,4,26,0.5,11.9246,M,7.098,M,0.1,0004*7C
$GPGGA,014342.20,3015.9420803,N,12007.1900594,E,4,27,0.5,11.9235,M,7.098,M,0.2,0004*7F
$GPGGA,014342.30,3015.9420811,N,12007.1900594,E,4,27,0.5,11.9252,M,7.098,M,0.3,0004*7D
$GPGGA,014342.40,3015.9420829,N,12007.1900582,E,4,27,0.5,11.9271,M,7.098,M,0.4,0004*70
$GPGGA,014342.50,3015.9420834,N,12007.1900554,E,4,28,0.5,11.9258,M,7.098,M,0.5,0004*73
$GPGGA,014342.60,3015.9420843,N,12007.1900566,E,4,29,0.5,11.9207,M,7.098,M,0.6,0004*79
$GPGGA,014342.70,3015.9420848,N,12007.1900560,E,4,29,0.5,11.9210,M,7.098,M,0.7,0004*72
$GPGGA,014342.80,3015.9420846,N,12007.1900564,E,4,29,0.5,11.9217,M,7.098,M,0.8,0004*7F
$GPGGA,014342.90,3015.9420841,N,12007.1900542,E,4,29,0.5,11.9180,M,7.098,M,0.9,0004*71
$GPGGA,014343.00,3015.9420846,N,12007.1900539,E,4,29,0.5,11.9169,M,7.098,M,1.0,0004*7D
$GPGGA,014343.10,3015.9420839,N,12007.1900532,E,4,29,0.5,11.9152,M,7.098,M,0.1,0004*77
$GPGGA,014343.20,3015.9420840,N,12007.1900537,E,4,29,0.5,11.9215,M,7.098,M,0.2,0004*7C
$GPGGA,014343.30,3015.9420844,N,12007.1900536,E,4,29,0.5,11.9183,M,7.098,M,0.3,0004*75
$GPGGA,014343.40,3015.9420847,N,12007.1900519,E,4,29,0.5,11.9198,M,7.098,M,0.4,0004*71
$GPGGA,014343.50,3015.9420854,N,12007.1900528,E,4,29,0.5,11.9177,M,7.098,M,0.5,0004*70
$GPGGA,014343.60,3015.9420860,N,12007.1900514,E,4,29,0.5,11.9184,M,7.098,M,0.6,0004*74
$GPGGA,014343.70,3015.9420860,N,12007.1900502,E,4,29,0.5,11.9192,M,7.098,M,0.7,0004*74
$GPGGA,014343.80,3015.9420860,N,12007.1900475,E,4,29,0.5,11.9219,M,7.098,M,0.8,0004*75
$GPGGA,014343.90,3015.9420864,N,12007.1900460,E,4,29,0.5,11.9189,M,7.098,M,0.9,0004*7F
$GPGGA,014344.00,3015.9420872,N,12007.1900439,E,4,29,0.5,11.9250,M,7.098,M,1.0,0004*75
$GPGGA,014344.10,3015.9420889,N,12007.1900395,E,4,29,0.5,11.9228,M,7.098,M,0.1,0004*7E
$GPGGA,014344.20,3015.9420904,N,12007.1900357,E,4,29,0.5,11.9227,M,7.098,M,0.2,0004*7B
$GPGGA,014344.30,3015.9420917,N,12007.1900329,E,4,29,0.5,11.9242,M,7.098,M,0.3,0004*73
$GPGGA,014344.40,3015.9420916,N,12007.1900281,E,4,29,0.5,11.9174,M,7.098,M,0.4,0004*77
$GPGGA,014344.50,3015.9420891,N,12007.1900213,E,4,29,0.5,11.9219,M,7.098,M,0.5,0004*7A
$GPGGA,014344.60,3015.9420888,N,12007.1900233,E,4,29,0.5,11.9230,M,7.098,M,0.6,0004*7B
$GPGGA,014344.70,3015.9420881,N,12007.1900221,E,4,29,0.5,11.9175,M,7.098,M,0.7,0004*73
$GPGGA,014344.80,3015.9420890,N,12007.1900226,E,4,29,0.5,11.9127,M,7.098,M,0.8,0004*73
$GPGGA,014344.90,3015.9420896,N,12007.1900222,E,4,29,0.5,11.9131,M,7.098,M,0.9,0004*76
$GPGGA,014345.00,3015.9420907,N,12007.1900211,E,4,29,0.5,11.9079,M,7.098,M,1.0,0004*72
$GPGGA,014345.10,3015.9420910,N,12007.1900227,E,4,29,0.5,11.9106,M,7.098,M,0.1,0004*79
$GPGGA,014345.20,3015.9420921,N,12007.1900234,E,4,29,0.5,11.9058,M,7.098,M,0.2,0004*73
$GPGGA,014345.30,3015.9420925,N,12007.1900244,E,4,28,0.5,11.9092,M,7.098,M,0.3,0004*77
$GPGGA,014345.40,3015.9420938,N,12007.1900251,E,4,28,0.6,11.9044,M,7.098,M,0.4,0004*77
$GPGGA,014345.50,3015.9420952,N,12007.1900238,E,4,27,0.6,11.9059,M,7.098,M,0.5,0004*77
$GPGGA,014345.60,3015.9420949,N,12007.1900245,E,4,27,0.6,11.9086,M,7.098,M,0.6,0004*75
$GPGGA,014345.70,3015.9420954,N,12007.1900237,E,4,27,0.6,11.9040,M,7.098,M,0.7,0004*76
$GPGGA,014345.80,3015.9420950,N,12007.1900260,E,4,27,0.6,11.9094,M,7.098,M,0.8,0004*79
$GPGGA,014345.90,3015.9420950,N,12007.1900290,E,4,26,0.6,11.9077,M,7.098,M,0.9,0004*7A
$GPGGA,014346.00,3015.9420951,N,12007.1900283,E,4,26,0.6,11.9093,M,7.098,M,1.0,0004*71
$GPGGA,014346.10,3015.9420946,N,12007.1900299,E,4,26,0.6,11.9064,M,7.098,M,0.1,0004*75
$GPGGA,014346.20,3015.9420937,N,12007.1900313,E,4,26,0.6,11.9130,M,7.098,M,0.2,0004*70
$GPGGA,014346.30,3015.9420942,N,12007.1900322,E,4,26,0.6,11.9083,M,7.098,M,0.3,0004*79
$GPGGA,014346.40,3015.9420944,N,12007.1900333,E,4,27,0.6,11.9085,M,7.098,M,0.4,0004*78
$GPGGA,014346.50,3015.9420933,N,12007.1900341,E,4,27,0.6,11.9071,M,7.098,M,0.5,0004*76
$GPGGA,014346.60,3015.9420943,N,12007.1900332,E,4,27,0.6,11.9022,M,7.098,M,0.6,0004*73
$GPGGA,014346.70,3015.9420942,N,12007.1900324,E,4,27,0.6,11.9039,M,7.098,M,0.7,0004*7F
$GPGGA,014346.80,3015.9420937,N,12007.1900319,E,4,27,0.6,11.9021,M,7.098,M,0.8,0004*7A
$GPGGA,014346.90,3015.9420944,N,12007.1900330,E,4,27,0.6,11.9045,M,7.098,M,0.9,0004*77
$GPGGA,014347.00,3015.9420945,N,12007.1900330,E,4,27,0.6,11.9021,M,7.098,M,1.0,0004*74
$GPGGA,014347.10,3015.9420940,N,12007.1900318,E,4,27,0.6,11.9048,M,7.098,M,0.1,0004*75
$GPGGA,014347.20,3015.9420937,N,12007.1900318,E,4,27,0.6,11.9029,M,7.098,M,0.2,0004*72
$GPGGA,014347.30,3015.9420933,N,12007.1900308,E,4,27,0.6,11.9058,M,7.098,M,0.3,0004*71
$GPGGA,014347.40,3015.9420923,N,12007.1900307,E,4,27,0.6,11.9092,M,7.098,M,0.4,0004*79
$GPGGA,014347.50,3015.9420918,N,12007.1900317,E,4,27,0.6,11.9095,M,7.098,M,0.5,0004*77
$GPGGA,014347.60,3015.9420916,N,12007.1900309,E,4,27,0.5,11.9102,M,7.098,M,0.6,0004*7A
$GPGGA,014347.70,3015.9420917,N,12007.1900318,E,4,28,0.5,11.9052,M,7.098,M,0.7,0004*70
$GPGGA,014347.80,3015.9420917,N,12007.1900313,E,4,29,0.5,11.9041,M,7.098,M,0.8,0004*78
$GPGGA,014347.90,3015.9420913,N,12007.1900314,E,4,29,0.5,11.9090,M,7.098,M,0.9,0004*77
$GPGGA,014348.00,3015.9420916,N,12007.1900318,E,4,29,0.5,11.9066,M,7.098,M,1.0,0004*79
$GPGGA,014348.10,3015.9420919,N,12007.1900309,E,4,29,0.5,11.9020,M,7.098,M,0.1,0004*75
$GPGGA,014348.20,3015.9420922,N,12007.1900330,E,4,29,0.5,11.9025,M,7.098,M,0.2,0004*72
$GPGGA,014348.30,3015.9420921,N,12007.1900328,E,4,29,0.5,11.9059,M,7.098,M,0.3,0004*73
$GPGGA,014348.40,3015.9420923,N,12007.1900320,E,4,29,0.5,11.9017,M,7.098,M,0.4,0004*73
$GPGGA,014348.50,3015.9420923,N,12007.1900324,E,4,29,0.5,11.9032,M,7.098,M,0.5,0004*70
$GPGGA,014348.60,3015.9420923,N,12007.1900310,E,4,29,0.5,11.9011,M,7.098,M,0.6,0004*76
$GPGGA,014348.70,3015.9420926,N,12007.1900297,E,4,29,0.5,11.9013,M,7.098,M,0.7,0004*7F
$GPGGA,014348.80,3015.9420926,N,12007.1900302,E,4,29,0.5,11.9075,M,7.098,M,0.8,0004*72
$GPGGA,014348.90,3015.9420919,N,12007.1900296,E,4,29,0.5,11.9073,M,7.098,M,0.9,0004*74
$GPGGA,014349.00,3015.9420916,N,12007.1900297,E,4,29,0.5,11.9120,M,7.098,M,1.0,0004*7D
$GPGGA,014349.10,3015.9420914,N,12007.1900296,E,4,29,0.5,11.9115,M,7.098,M,0.1,0004*79
$GPGGA,014349.20,3015.9420910,N,12007.1900296,E,4,29,0.5,11.9133,M,7.098,M,0.2,0004*79
$GPGGA,014349.30,3015.9420907,N,12007.1900302,E,4,29,0.5,11.9170,M,7.098,M,0.3,0004*74
$GPGGA,014349.40,3015.9420901,N,12007.1900304,E,4,29,0.5,11.9177,M,7.098,M,0.4,0004*73
$GPGGA,014349.50,3015.9420901,N,12007.1900304,E,4,29,0.5,11.9122,M,7.098,M,0.5,0004*73
$GPGGA,014349.60,3015.9420913,N,12007.1900312,E,4,28,0.6,11.9109,M,7.098,M,0.6,0004*7C
$GPGGA,014349.70,3015.9420907,N,12007.1900317,E,4,27,0.6,11.9061,M,7.098,M,0.7,0004*7C
$GPGGA,014349.80,3015.9420907,N,12007.1900318,E,4,27,0.6,11.9075,M,7.098,M,0.8,0004*76
$GPGGA,014349.90,3015.9420913,N,12007.1900324,E,4,25,0.6,11.9064,M,7.098,M,0.9,0004*7E
$GPGGA,014350.00,3015.9420909,N,12007.1900321,E,4,24,0.6,11.9054,M,7.098,M,1.0,0004*7B
$GPGGA,014350.10,3015.9420917,N,12007.1900325,E,4,24,0.6,11.9024,M,7.098,M,0.1,0004*76
$GPGGA,014350.20,3015.9420908,N,12007.1900308,E,4,25,0.6,11.9017,M,7.098,M,0.2,0004*76
$GPGGA,014350.30,3015.9420904,N,12007.1900309,E,4,25,0.6,11.9060,M,7.098,M,0.3,0004*7B
$GPGGA,014350.40,3015.9420913,N,12007.1900319,E,4,26,0.6,11.9068,M,7.098,M,0.4,0004*77
$GPGGA,014350.50,3015.9420915,N,12007.1900328,E,4,26,0.6,11.9102,M,7.098,M,0.5,0004*7E
$GPGGA,014350.60,3015.9420920,N,12007.1900328,E,4,26,0.6,11.9093,M,7.098,M,0.6,0004*71
$GPGGA,014350.70,3015.9420918,N,12007.1900336,E,4,26,0.6,11.9081,M,7.098,M,0.7,0004*76
$GPGGA,014350.80,3015.9420915,N,12007.1900332,E,4,26,0.6,11.9123,M,7.098,M,0.8,0004*76
$GPGGA,014350.90,3015.9420910,N,12007.1900327,E,4,26,0.6,11.9087,M,7.098,M,0.9,0004*78
$GPGGA,014351.00,3015.9420925,N,12007.1900317,E,4,27,0.6,11.9152,M,7.098,M,1.0,0004*75
$GPGGA,014351.10,3015.9420928,N,12007.1900302,E,4,27,0.6,11.9061,M,7.098,M,0.1,0004*7C
$GPGGA,014351.20,3015.9420947,N,12007.1900317,E,4,26,0.6,11.9058,M,7.098,M,0.2,0004*7A
$GPGGA,014351.30,3015.9420962,N,12007.1900320,E,4,26,0.6,11.9114,M,7.098,M,0.3,0004*70
$GPGGA,014351.40,3015.9420985,N,12007.1900299,E,4,26,0.6,11.9174,M,7.098,M,0.4,0004*7C
$GPGGA,014351.50,3015.9421025,N,12007.1900323,E,4,27,0.6,11.9170,M,7.098,M,0.5,0004*7B
$GPGGA,014351.60,3015.9421023,N,12007.1900306,E,4,27,0.6,11.9202,M,7.098,M,0.6,0004*7C
$GPGGA,014351.70,3015.9421014,N,12007.1900312,E,4,27,0.6,11.9256,M,7.098,M,0.7,0004*7C
$GPGGA,014351.80,3015.9421037,N,12007.1900307,E,4,27,0.6,11.9226,M,7.098,M,0.8,0004*7E
$GPGGA,014351.90,3015.9421038,N,12007.1900280,E,4,27,0.6,11.9218,M,7.098,M,0.9,0004*72
$GPGGA,014352.00,3015.9421037,N,12007.1900288,E,4,27,0.6,11.9219,M,7.098,M,1.0,0004*76
$GPGGA,014352.10,3015.9420996,N,12007.1900282,E,4,27,0.6,11.9240,M,7.098,M,0.1,0004*72
$GPGGA,014352.20,3015.9421044,N,12007.1900220,E,4,27,0.6,11.9261,M,7.098,M,0.2,0004*7E
$GPGGA,014352.30,3015.9421045,N,12007.1900270,E,4,27,0.6,11.9254,M,7.098,M,0.3,0004*7C
$GPGGA,014352.40,3015.9421053,N,12007.1900251,E,4,27,0.6,11.9246,M,7.098,M,0.4,0004*7B
$GPGGA,014352.50,3015.9421055,N,12007.1900253,E,4,27,0.6,11.9243,M,7.098,M,0.5,0004*7A
$GPGGA,014352.60,3015.9421053,N,12007.1900252,E,4,27,0.6,11.9220,M,7.098,M,0.6,0004*78
$GPGGA,014352.70,3015.9421059,N,12007.1900253,E,4,27,0.6,11.9175,M,7.098,M,0.7,0004*70
$GPGGA,014352.80,3015.9421053,N,12007.1900254,E,4,27,0.6,11.9230,M,7.098,M,0.8,0004*7F
$GPGGA,014352.90,3015.9421051,N,12007.1900248,E,4,27,0.6,11.9186,M,7.098,M,0.9,0004*7E
$GPGGA,014353.00,3015.9421050,N,12007.1900259,E,4,27,0.6,11.9175,M,7.098,M,1.0,0004*73
$GPGGA,014353.10,3015.9421053,N,12007.1900257,E,4,27,0.6,11.9169,M,7.098,M,0.1,0004*72
$GPGGA,014353.20,3015.9421055,N,12007.1900257,E,4,28,0.5,11.9123,M,7.098,M,0.2,0004*76
$GPGGA,014353.30,3015.9421062,N,12007.1900263,E,4,28,0.5,11.9133,M,7.098,M,0.3,0004*74
$GPGGA,014353.40,3015.9421062,N,12007.1900268,E,4,28,0.5,11.9144,M,7.098,M,0.4,0004*7F
$GPGGA,014353.50,3015.9421066,N,12007.1900265,E,4,28,0.5,11.9120,M,7.098,M,0.5,0004*74
$GPGGA,014353.60,3015.9421063,N,12007.1900266,E,4,28,0.5,11.9115,M,7.098,M,0.6,0004*74
$GPGGA,014353.70,3015.9421061,N,12007.1900264,E,4,28,0.5,11.9109,M,7.098,M,0.7,0004*79
$GPGGA,014353.80,3015.9421059,N,12007.1900259,E,4,28,0.5,11.9156,M,7.098,M,0.8,0004*76
$GPGGA,014353.90,3015.9421053,N,12007.1900251,E,4,28,0.5,11.9097,M,7.098,M,0.9,0004*78
$GPGGA,014354.00,3015.9421061,N,12007.1900257,E,4,27,0.5,11.9125,M,7.098,M,1.0,0004*7E
$GPGGA,014354.10,3015.9421056,N,12007.1900255,E,4,27,0.5,11.9081,M,7.098,M,0.1,0004*76
$GPGGA,014354.20,3015.9421052,N,12007.1900243,E,4,27,0.5,11.9111,M,7.098,M,0.2,0004*7D
$GPGGA,014354.30,3015.9421057,N,12007.1900248,E,4,27,0.5,11.9085,M,7.098,M,0.3,0004*7F
$GPGGA,014354.40,3015.9421062,N,12007.1900247,E,4,27,0.5,11.9097,M,7.098,M,0.4,0004*75
$GPGGA,014354.50,3015.9421054,N,12007.1900248,E,4,27,0.5,11.9104,M,7.098,M,0.5,0004*74
$GPGGA,014354.60,3015.9421052,N,12007.1900246,E,4,27,0.5,11.9116,M,7.098,M,0.6,0004*7F
$GPGGA,014354.70,3015.9421056,N,12007.1900260,E,4,27,0.5,11.9098,M,7.098,M,0.7,0004*78
$GPGGA,014354.80,3015.9421061,N,12007.1900247,E,4,27,0.5,11.9075,M,7.098,M,0.8,0004*7A
$GPGGA,014354.90,3015.9421058,N,12007.1900250,E,4,27,0.5,11.9074,M,7.098,M,0.9,0004*77
$GPGGA,014355.00,3015.9421064,N,12007.1900257,E,4,27,0.5,11.9071,M,7.098,M,1.0,0004*7A
$GPGGA,014355.10,3015.9421063,N,12007.1900250,E,4,27,0.5,11.9077,M,7.098,M,0.1,0004*7D
$GPGGA,014355.20,3015.9421067,N,12007.1900246,E,4,27,0.5,11.9053,M,7.098,M,0.2,0004*78
$GPGGA,014355.30,3015.9421074,N,12007.1900247,E,4,27,0.5,11.9091,M,7.098,M,0.3,0004*75
$GPGGA,014355.40,3015.9421077,N,12007.1900250,E,4,26,0.5,11.9083,M,7.098,M,0.4,0004*72
$GPGGA,014355.50,3015.9421076,N,12007.1900250,E,4,26,0.5,11.9054,M,7.098,M,0.5,0004*79
$GPGGA,014355.60,3015.9421078,N,12007.1900246,E,4,26,0.6,11.9037,M,7.098,M,0.6,0004*76
$GPGGA,014355.70,3015.9421074,N,12007.1900243,E,4,26,0.5,11.9041,M,7.098,M,0.7,0004*7D
$GPGGA,014355.80,3015.9421073,N,12007.1900251,E,4,26,0.6,11.9056,M,7.098,M,0.8,0004*7C
$GPGGA,014355.90,3015.9421079,N,12007.1900247,E,4,26,0.6,11.9016,M,7.098,M,0.9,0004*75
$GPGGA,014356.00,3015.9421078,N,12007.1900246,E,4,26,0.6,11.9043,M,7.098,M,1.0,0004*77
$GPGGA,014356.10,3015.9421077,N,12007.1900243,E,4,26,0.6,11.9033,M,7.098,M,0.1,0004*7B
$GPGGA,014356.20,3015.9421073,N,12007.1900243,E,4,26,0.6,11.9032,M,7.098,M,0.2,0004*7E
$GPGGA,014356.30,3015.9421073,N,12007.1900249,E,4,26,0.6,11.9010,M,7.098,M,0.3,0004*74
$GPGGA,014356.40,3015.9421072,N,12007.1900242,E,4,26,0.6,11.9024,M,7.098,M,0.4,0004*79
$GPGGA,014356.50,3015.9421071,N,12007.1900247,E,4,26,0.6,11.9032,M,7.098,M,0.5,0004*78
$GPGGA,014356.60,3015.9421076,N,12007.1900247,E,4,26,0.6,11.9034,M,7.098,M,0.6,0004*79
$GPGGA,014356.70,3015.9421077,N,12007.1900247,E,4,26,0.6,11.9034,M,7.098,M,0.7,0004*78
$GPGGA,014356.80,3015.9421078,N,12007.1900253,E,4,26,0.6,11.8991,M,7.098,M,0.8,0004*75
$GPGGA,014356.90,3015.9421072,N,12007.1900247,E,4,26,0.6,11.9013,M,7.098,M,0.9,0004*78
$GPGGA,014357.00,3015.9421072,N,12007.1900245,E,4,26,0.6,11.9013,M,7.098,M,1.0,0004*7A
$GPGGA,014357.10,3015.9421082,N,12007.1900248,E,4,26,0.6,11.9024,M,7.098,M,0.1,0004*7D
$GPGGA,014357.20,3015.9421070,N,12007.1900237,E,4,26,0.6,11.9019,M,7.098,M,0.2,0004*76
$GPGGA,014357.30,3015.9421080,N,12007.1900242,E,4,26,0.6,11.9016,M,7.098,M,0.3,0004*74
$GPGGA,014357.40,3015.9421075,N,12007.1900241,E,4,26,0.6,11.9048,M,7.098,M,0.4,0004*76
$GPGGA,014357.50,3015.9421082,N,12007.1900246,E,4,26,0.6,11.9034,M,7.098,M,0.5,0004*72
$GPGGA,014357.60,3015.9421074,N,12007.1900235,E,4,26,0.6,11.9025,M,7.098,M,0.6,0004*7F
$GPGGA,014357.70,3015.9421080,N,12007.1900242,E,4,26,0.6,11.9010,M,7.098,M,0.7,0004*72
$GPGGA,014357.80,3015.9421074,N,12007.1900243,E,4,26,0.6,11.9027,M,7.098,M,0.8,0004*7C
$GPGGA,014357.90,3015.9421077,N,12007.1900246,E,4,26,0.6,11.9008,M,7.098,M,0.9,0004*77
$GPGGA,014358.00,3015.9421075,N,12007.1900235,E,4,26,0.6,11.8994,M,7.098,M,1.0,0004*72
$GPGGA,014358.10,3015.9421080,N,12007.1900244,E,4,26,0.6,11.9014,M,7.098,M,1.1,0004*7E
$GPGGA,014358.20,3015.9421077,N,12007.1900242,E,4,26,0.6,11.9006,M,7.098,M,0.2,0004*72
$GPGGA,014358.30,3015.9421075,N,12007.1900234,E,4,26,0.6,11.9020,M,7.098,M,0.3,0004*75
$GPGGA,014358.40,3015.9421075,N,12007.1900237,E,4,26,0.6,11.9020,M,7.098,M,0.4,0004*76
$GPGGA,014358.50,3015.9421084,N,12007.1900242,E,4,26,0.6,11.8988,M,7.098,M,0.5,0004*70
$GPGGA,014358.60,3015.9421079,N,12007.1900236,E,4,26,0.6,11.8989,M,7.098,M,0.6,0004*70
$GPGGA,014358.70,3015.9421080,N,12007.1900241,E,4,26,0.6,11.9024,M,7.098,M,0.7,0004*79
$GPGGA,014358.80,3015.9421087,N,12007.1900241,E,4,26,0.6,11.8994,M,7.098,M,0.8,0004*7D
$GPGGA,014358.90,3015.9421075,N,12007.1900239,E,4,26,0.6,11.9012,M,7.098,M,0.9,0004*79
$GPGGA,014359.00,3015.9421080,N,12007.1900237,E,4,26,0.6,11.8986,M,7.098,M,1.0,0004*78
$GPGGA,014359.10,3015.9421089,N,12007.1900232,E,4,26,0.6,11.8969,M,7.098,M,0.1,0004*74
$GPGGA,014359.20,3015.9421077,N,12007.1900235,E,4,26,0.6,11.9005,M,7.098,M,0.2,0004*70
$GPGGA,014359.30,3015.9421076,N,12007.1900232,E,4,26,0.6,11.9013,M,7.098,M,0.3,0004*71
$GPGGA,014359.40,3015.9421073,N,12007.1900238,E,4,26,0.6,11.9014,M,7.098,M,0.4,0004*79
$GPGGA,014359.50,3015.9421072,N,12007.1900242,E,4,26,0.6,11.8994,M,7.098,M,0.5,0004*75
$GPGGA,014359.60,3015.9421070,N,12007.1900232,E,4,26,0.6,11.9036,M,7.098,M,0.6,0004*70
$GPGGA,014359.70,3015.9421077,N,12007.1900233,E,4,26,0.6,11.8981,M,7.098,M,0.7,0004*72
$GPGGA,014359.80,3015.9421071,N,12007.1900234,E,4,26,0.6,11.8979,M,7.098,M,0.8,0004*74
$GPGGA,014359.90,3015.9421077,N,12007.1900232,E,4,26,0.6,11.8994,M,7.098,M,0.9,0004*77
$GPGGA,014400.00,3015.9421075,N,12007.1900232,E,4,26,0.6,11.8971,M,7.098,M,1.0,0004*74
$GPGGA,014400.10,3015.9421071,N,12007.1900230,E,4,26,0.6,11.8959,M,7.098,M,0.1,0004*79
$GPGGA,014400.20,3015.9421074,N,12007.1900230,E,4,26,0.6,11.8968,M,7.098,M,0.2,0004*7E
$GPGGA,014400.30,3015.9421071,N,12007.1900240,E,4,26,0.6,11.8966,M,7.098,M,0.3,0004*72
$GPGGA,014400.40,3015.9421078,N,12007.1900234,E,4,26,0.6,11.8935,M,7.098,M,0.4,0004*7E
$GPGGA,014400.50,3015.9421082,N,12007.1900230,E,4,26,0.6,11.8932,M,7.098,M,0.5,0004*78
$GPGGA,014400.60,3015.9421077,N,12007.1900236,E,4,26,0.6,11.8948,M,7.098,M,0.6,0004*79
$GPGGA,014400.70,3015.9421079,N,12007.1900240,E,4,26,0.6,11.8935,M,7.098,M,0.7,0004*7C
$GPGGA,014400.80,3015.9421077,N,12007.1900225,E,4,26,0.6,11.8944,M,7.098,M,0.8,0004*77
$GPGGA,014400.90,3015.9421074,N,12007.1900236,E,4,26,0.6,11.8960,M,7.098,M,0.9,0004*70
$GPGGA,014401.00,3015.9421078,N,12007.1900234,E,4,26,0.6,11.8938,M,7.098,M,1.0,0004*73
$GPGGA,014401.10,3015.9421076,N,12007.1900229,E,4,26,0.6,11.8910,M,7.098,M,0.1,0004*7A
$GPGGA,014401.20,3015.9421089,N,12007.1900230,E,4,26,0.6,11.8918,M,7.098,M,0.2,0004*7A
$GPGGA,014401.30,3015.9421102,N,12007.1900228,E,4,26,0.6,11.8899,M,7.098,M,0.3,0004*79
$GPGGA,014401.40,3015.9421139,N,12007.1900244,E,4,26,0.6,11.8999,M,7.098,M,0.4,0004*7A
$GPGGA,014401.50,3015.9421160,N,12007.1900260,E,4,26,0.6,11.9017,M,7.098,M,0.5,0004*7E
$GPGGA,014401.60,3015.9421158,N,12007.1900274,E,4,26,0.6,11.9157,M,7.098,M,0.6,0004*75
$GPGGA,014401.70,3015.9421268,N,12007.1900309,E,4,26,0.6,11.9278,M,7.098,M,0.7,0004*70
$GPGGA,014401.80,3015.9421419,N,12007.1900360,E,4,26,0.6,11.9266,M,7.098,M,0.8,0004*70
$GPGGA,014401.90,3015.9421498,N,12007.1900391,E,4,27,0.6,11.9231,M,7.098,M,0.9,0004*74
$GPGGA,014402.00,3015.9421592,N,12007.1900417,E,4,27,0.6,11.9184,M,7.098,M,1.0,0004*79
$GPGGA,014402.10,3015.9421675,N,12007.1900453,E,4,26,0.6,11.9224,M,7.098,M,0.1,0004*7A
$GPGGA,014402.20,3015.9421764,N,12007.1900476,E,4,26,0.6,11.9301,M,7.098,M,0.2,0004*7A
$GPGGA,014402.30,3015.9421851,N,12007.1900496,E,4,26,0.6,11.9252,M,7.098,M,0.3,0004*7A
$GPGGA,014402.40,3015.9421917,N,12007.1900506,E,4,26,0.6,11.9214,M,7.098,M,0.4,0004*73
$GPGGA,014402.50,3015.9422000,N,12007.1900532,E,4,27,0.6,11.9095,M,7.098,M,0.5,0004*72
$GPGGA,014402.60,3015.9422049,N,12007.1900524,E,4,27,0.6,11.9111,M,7.098,M,0.6,0004*75
$GPGGA,014402.70,3015.9422087,N,12007.1900525,E,4,27,0.6,11.9091,M,7.098,M,0.7,0004*7F
$GPGGA,014402.80,3015.9422113,N,12007.1900527,E,4,27,0.6,11.9058,M,7.098,M,0.8,0004*74
$GPGGA,014402.90,3015.9422114,N,12007.1900531,E,4,27,0.6,11.9073,M,7.098,M,0.9,0004*7D
$GPGGA,014403.00,3015.9422134,N,12007.1900529,E,4,27,0.6,11.9022,M,7.098,M,1.0,0004*72
$GPGGA,014403.10,3015.9422130,N,12007.1900526,E,4,28,0.5,11.9013,M,7.098,M,0.1,0004*76
$GPGGA,014403.20,3015.9422139,N,12007.1900528,E,4,28,0.5,11.8955,M,7.098,M,0.2,0004*7B
$GPGGA,014403.30,3015.9422131,N,12007.1900512,E,4,28,0.5,11.8984,M,7.098,M,0.3,0004*76
$GPGGA,014403.40,3015.9422126,N,12007.1900484,E,4,27,0.5,11.8982,M,7.098,M,0.4,0004*77
$GPGGA,014403.50,3015.9422119,N,12007.1900476,E,4,27,0.5,11.8945,M,7.098,M,0.5,0004*7D
$GPGGA,014403.60,3015.9422107,N,12007.1900493,E,4,28,0.5,11.8967,M,7.098,M,0.6,0004*76
$GPGGA,014403.70,3015.9422096,N,12007.1900468,E,4,28,0.5,11.8970,M,7.098,M,0.7,0004*7D
$GPGGA,014403.80,3015.9422098,N,12007.1900494,E,4,27,0.5,11.8949,M,7.098,M,0.8,0004*75
$GPGGA,014403.90,3015.9422112,N,12007.1900497,E,4,27,0.5,11.8963,M,7.098,M,0.9,0004*7D
$GPGGA,014404.00,3015.9422104,N,12007.1900496,E,4,27,0.5,11.8973,M,7.098,M,1.0,0004*7C
$GPGGA,014404.10,3015.9422099,N,12007.1900497,E,4,27,0.5,11.8935,M,7.098,M,0.1,0004*7B
$GPGGA,014404.20,3015.9422110,N,12007.1900497,E,4,27,0.5,11.8955,M,7.098,M,0.2,0004*7D
$GPGGA,014404.30,3015.9422108,N,12007.1900505,E,4,27,0.5,11.8933,M,7.098,M,0.3,0004*7E
$GPGGA,014404.40,3015.9422113,N,12007.1900508,E,4,27,0.5,11.8928,M,7.098,M,0.4,0004*73
$GPGGA,014404.50,3015.9422115,N,12007.1900516,E,4,27,0.5,11.8944,M,7.098,M,0.5,0004*70
$GPGGA,014404.60,3015.9422116,N,12007.1900515,E,4,27,0.5,11.8946,M,7.098,M,0.6,0004*72
$GPGGA,014404.70,3015.9422121,N,12007.1900517,E,4,27,0.5,11.8962,M,7.098,M,0.7,0004*72
$GPGGA,014404.80,3015.9422122,N,12007.1900513,E,4,27,0.5,11.8944,M,7.098,M,0.8,0004*71
$GPGGA,014404.90,3015.9422118,N,12007.1900512,E,4,27,0.5,11.8942,M,7.098,M,0.9,0004*7F
$GPGGA,014405.00,3015.9422122,N,12007.1900514,E,4,27,0.5,11.8951,M,7.098,M,1.0,0004*72
$GPGGA,014405.10,3015.9422125,N,12007.1900512,E,4,27,0.5,11.8909,M,7.098,M,0.1,0004*7F
$GPGGA,014405.20,3015.9422115,N,12007.1900507,E,4,27,0.5,11.8954,M,7.098,M,0.2,0004*70
$GPGGA,014405.30,3015.9422120,N,12007.1900514,E,4,27,0.5,11.8918,M,7.098,M,0.3,0004*7C
$GPGGA,014405.40,3015.9422120,N,12007.1900513,E,4,27,0.5,11.8917,M,7.098,M,0.4,0004*74
$GPGGA,014405.50,3015.9422123,N,12007.1900513,E,4,27,0.5,11.8974,M,7.098,M,0.5,0004*72
$GPGGA,014405.60,3015.9422140,N,12007.1900518,E,4,27,0.5,11.8913,M,7.098,M,0.6,0004*7D
$GPGGA,014405.70,3015.9422132,N,12007.1900517,E,4,27,0.5,11.8956,M,7.098,M,0.7,0004*76
$GPGGA,014405.80,3015.9422133,N,12007.1900519,E,4,27,0.5,11.8973,M,7.098,M,0.8,0004*7E
$GPGGA,014405.90,3015.9422129,N,12007.1900513,E,4,27,0.5,11.8965,M,7.098,M,0.9,0004*78
$GPGGA,014406.00,3015.9422138,N,12007.1900525,E,4,27,0.5,11.8951,M,7.098,M,1.0,0004*78
$GPGGA,014406.10,3015.9422137,N,12007.1900526,E,4,27,0.5,11.8954,M,7.098,M,1.1,0004*71
$GPGGA,014406.20,3015.9422141,N,12007.1900518,E,4,27,0.5,11.8926,M,7.098,M,0.2,0004*79
$GPGGA,014406.30,3015.9422149,N,12007.1900510,E,4,27,0.5,11.8912,M,7.098,M,0.3,0004*7E
$GPGGA,014406.40,3015.9422157,N,12007.1900509,E,4,27,0.5,11.8892,M,7.098,M,0.4,0004*70
$GPGGA,014406.50,3015.9422157,N,12007.1900509,E,4,27,0.5,11.8962,M,7.098,M,0.5,0004*7E
$GPGGA,014406.60,3015.9422154,N,12007.1900507,E,4,27,0.5,11.8925,M,7.098,M,0.6,0004*70
$GPGGA,014406.70,3015.9422154,N,12007.1900510,E,4,27,0.5,11.8943,M,7.098,M,0.7,0004*76
$GPGGA,014406.80,3015.9422154,N,12007.1900505,E,4,27,0.5,11.8944,M,7.098,M,0.8,0004*75
$GPGGA,014406.90,3015.9422158,N,12007.1900520,E,4,27,0.5,11.8887,M,7.098,M,0.9,0004*70
$GPGGA,014407.00,3015.9422163,N,12007.1900518,E,4,27,0.5,11.8928,M,7.098,M,1.0,0004*77
$GPGGA,014407.10,3015.9422159,N,12007.1900515,E,4,27,0.5,11.8981,M,7.098,M,0.1,0004*71
$GPGGA,014407.20,3015.9422163,N,12007.1900525,E,4,27,0.5,11.9003,M,7.098,M,0.2,0004*79
$GPGGA,014407.30,3015.9422165,N,12007.1900517,E,4,27,0.5,11.8994,M,7.098,M,0.3,0004*78
$GPGGA,014407.40,3015.9422165,N,12007.1900523,E,4,27,0.5,11.8963,M,7.098,M,0.4,0004*77
$GPGGA,014407.50,3015.9422161,N,12007.1900523,E,4,27,0.5,11.8960,M,7.098,M,0.5,0004*70
$GPGGA,014407.60,3015.9422151,N,12007.1900529,E,4,27,0.5,11.9004,M,7.098,M,0.6,0004*73
$GPGGA,014407.70,3015.9422147,N,12007.1900527,E,4,27,0.5,11.9033,M,7.098,M,0.7,0004*7E
$GPGGA,014407.80,3015.9422157,N,12007.1900529,E,4,27,0.5,11.8948,M,7.098,M,0.8,0004*75
$GPGGA,014407.90,3015.9422152,N,12007.1900529,E,4,27,0.5,11.8972,M,7.098,M,0.9,0004*79
$GPGGA,014408.00,3015.9422156,N,12007.1900544,E,4,27,0.5,11.8973,M,7.098,M,1.0,0004*79
$GPGGA,014408.10,3015.9422160,N,12007.1900546,E,4,27,0.5,11.8974,M,7.098,M,0.1,0004*78
$GPGGA,014408.20,3015.9422175,N,12007.1900531,E,4,27,0.5,11.8915,M,7.098,M,0.2,0004*7B
$GPGGA,014408.30,3015.9422198,N,12007.1900539,E,4,27,0.5,11.8868,M,7.098,M,0.3,0004*7B
$GPGGA,014408.40,3015.9422221,N,12007.1900545,E,4,27,0.5,11.8899,M,7.098,M,0.4,0004*7F
$GPGGA,014408.50,3015.9422226,N,12007.1900537,E,4,27,0.5,11.8846,M,7.098,M,0.5,0004*7F
$GPGGA,014408.60,3015.9422216,N,12007.1900543,E,4,26,0.5,11.8945,M,7.098,M,0.6,0004*7C
$GPGGA,014408.70,3015.9422261,N,12007.1900576,E,4,26,0.5,11.8851,M,7.098,M,0.7,0004*7E
$GPGGA,014408.80,3015.9422261,N,12007.1900577,E,4,26,0.5,11.8862,M,7.098,M,0.8,0004*7F
$GPGGA,014408.90,3015.9422277,N,12007.1900591,E,4,26,0.5,11.8832,M,7.098,M,0.9,0004*75
$GPGGA,014409.00,3015.9422289,N,12007.1900613,E,4,26,0.5,11.8814,M,7.098,M,1.0,0004*79
$GPGGA,014409.10,3015.9422289,N,12007.1900626,E,4,26,0.5,11.8741,M,7.098,M,0.1,0004*71
$GPGGA,014409.20,3015.9422293,N,12007.1900622,E,4,26,0.5,11.8762,M,7.098,M,0.2,0004*7F
$GPGGA,014409.30,3015.9422305,N,12007.1900637,E,4,27,0.5,11.8743,M,7.098,M,0.3,0004*77
$GPGGA,014409.40,3015.9422308,N,12007.1900639,E,4,27,0.5,11.8736,M,7.098,M,0.4,0004*76
$GPGGA,014409.50,3015.9422311,N,12007.1900637,E,4,27,0.5,11.8717,M,7.098,M,0.5,0004*73
$GPGGA,014409.60,3015.9422305,N,12007.1900648,E,4,27,0.5,11.8707,M,7.098,M,0.6,0004*7F
$GPGGA,014409.70,3015.9422313,N,12007.1900655,E,4,27,0.5,11.8639,M,7.098,M,0.7,0004*78
$GPGGA,014409.80,3015.9422305,N,12007.1900643,E,4,27,0.5,11.8677,M,7.098,M,0.8,0004*72
$GPGGA,014409.90,3015.9422312,N,12007.1900654,E,4,27,0.5,11.8639,M,7.098,M,0.9,0004*78
$GPGGA,014410.00,3015.9422312,N,12007.1900663,E,4,27,0.5,11.8640,M,7.098,M,1.0,0004*7B
